id_mutation,date_mutation,nature_mutation,valeur_fonciere,adresse_nom_voie,code_postal,code_commune,nom_commune,id_parcelle,longitude,latitude
2017-804801,2017-06-26,Vente,520000.0,FERME DE BUTERNE,59116.0,59317,Houplines,593170000A5789,2.920227,50.686597
2017-737544,2017-03-07,Vente,42500.0,RUE MATHIEU DE DOMBASLE,54110.0,54159,Dombasle-sur-Meurthe,54159000AB0208,6.350117,48.627016
2017-1121030,2017-07-05,Vente,139000.0,RUE DE LA CALABRE,79400.0,79270,Saint-Maixent-l'École,79270000AP1193,-0.206825,46.410542
2017-78992,2017-11-17,Vente,90000.0,CHABAUDE,7200.0,7131,Lanas,071310000D0695,4.402417,44.538637
2017-421251,2017-08-22,Vente en l'état futur d'achèvement,220000.0,BD ALBERT 1ER,33800.0,33063,Bordeaux,33063000CE0092,-0.570103,44.813546
2017-894006,2017-08-29,Vente,91500.0,PALAIS DES PYRENEES BLOC B,64000.0,64445,Pau,64445000BY0250,-0.368111,43.295072
2017-423007,2017-10-23,Vente,495000.0,ALL DU MOULIN DE DESCLAU,33170.0,33192,Gradignan,33192000BN0031,-0.604586,44.773465
2017-286165,2017-06-12,Vente,65000.0,RUE JULES MASSENET,26000.0,26362,Valence,26362000AT0169,4.907035,44.931517
2017-606001,2017-12-22,Vente,60000.0,RUE FRANCOIS POUTIGNAT,42300.0,42187,Roanne,42187000AZ0625,4.067236,46.043799
2017-699391,2017-02-17,Vente,45000.0,PETIT BOURG D AMONT,49420.0,49056,Carbay,490560000B0385,-1.221738,47.734718
2017-451908,2017-01-12,Vente en l'état futur d'achèvement,182000.0,RUE DE LA MARQUEROSE,34070.0,34172,Montpellier,34172000ER0008,3.86943,43.587075
2017-1085716,2017-08-02,Vente,240000.0,RUE DES CAPUCINES,77420.0,77083,Champs-sur-Marne,77083000BA0667,2.588594,48.862224
2017-1077602,2017-07-19,Vente,99000.0,AVE DE GAULLE 27 FOUGERES,77210.0,77014,Avon,770140000A0931,2.733497,48.421202
2017-466886,2017-01-31,Vente en l'état futur d'achèvement,167169.0,CANTAUSSEL,34670.0,34244,Saint-Brès,342440000B0706,4.03969,43.67016
2017-822914,2017-12-26,Vente,30000.0,RUE VICTOR HUGO,59227.0,59558,Saulzoir,595580000B2081,3.440701,50.239491
2017-248004,2017-04-24,Vente,305800.0,LES HAUTS,22650.0,22209,Beaussais-sur-Mer,222090000B1218,-2.127292,48.573549
2017-164634,2017-08-11,Vente,33600.0,LE BOURG MAGNY LA CAMPAGNE,14270.0,14431,Mézidon Vallée d'Auge,144313860B0953,-0.106464,49.050129
2017-599027,2017-04-26,Vente en l'état futur d'achèvement,183000.0,LA VILLE,42170.0,42279,Saint-Just-Saint-Rambert,42279000AM0941,4.237568,45.501209
2017-1188230,2017-07-19,Vente,30050.0,CLAPEIROUSE,84210.0,84101,La Roque-sur-Pernes,841010000B0236,5.111809,43.970043
2017-330228,2017-05-31,Vente,90000.0,KERZALOU,29870.0,29101,Landéda,29101000BY0046,-4.542715,48.59286
2017-775667,2017-08-19,Vente,128950.0,PENKER ALAIN,56320.0,56105,Lanvénégen,561050000B1362,-3.519588,48.018195
2017-1356136,2017-07-12,Vente,125000.0,RUE DU GENERAL LECLERC,94520.0,94047,Mandres-les-Roses,94047000AO0099,2.542209,48.701649
2017-382386,2017-06-21,Vente,270000.0,AV GENERAL COMPANS,31700.0,31069,Blagnac,31069000AX0456,1.397385,43.629308
2017-1398416,2017-03-23,Vente,125000.0,CHE LAGUERRE,97429.0,97405,Petite-Île,97405000AZ0821,55.560541,-21.358683
2017-273065,2017-05-05,Vente,65454.11,VERILLE,25110.0,25354,Luxiol,25354000ZE0023,6.347986,47.374499
2017-119107,2017-02-09,Vente,128000.0,CRS FRANKLIN ROOSEVELT,13001.0,13201,Marseille 1er Arrondissement,132018060B0124,5.38787,43.299174
2017-19612,2017-04-18,Vente,155000.0,ALL OLIVIER MESSIAEN,2200.0,2722,Soissons,02722000AP0135,3.317756,49.374553
2017-265054,2017-12-19,Vente,342000.0,LES COULARDES,24450.0,24133,La Coquille,24133000AZ0133,0.953675,45.553331
2017-83006,2017-12-30,Vente,165000.0,FOUR DE TUILES,7410.0,7014,Arlebosc,070140000A0182,4.589509,45.046959
2017-310750,2017-03-29,Vente,45000.0,RUE EMILE DELAVALLEE,28160.0,28424,Yèvres,28424000AB0008,1.186103,48.208927
2017-1246849,2017-02-16,Vente,63500.0,RUE DES FORTS,88160.0,88468,Le Thillot,88468000AH0520,6.762196,47.874735
2017-834826,2017-02-16,Vente,174000.0,RUE DU MOULIN,60400.0,60105,Brétigny,601050000A0506,3.108648,49.566371
2017-585237,2017-07-03,Vente,77400.0,RUE DES VIGNES,41110.0,41198,Saint-Aignan,41198000AD0291,1.370325,47.26404
2017-1134582,2017-06-23,Vente,160000.0,PL JEAN JAURES,80210.0,80308,Feuquières-en-Vimeu,803080000D0474,1.609146,50.060529
2017-730663,2017-07-11,Vente,45146.0,LE CHAMP DE BERTHE,53410.0,53129,Launay-Villiers,531290000A0341,-0.979774,48.128827
2017-292231,2017-04-18,Vente,42000.0,L ESCLOT,26790.0,26054,Bouchet,26054000AD0177,4.859595,44.297564
2017-1351908,2017-11-07,Vente,350000.0,RUE GABRIEL PERI,94270.0,94043,Le Kremlin-Bicêtre,940430000N0102,2.345496,48.803574
2017-238099,2017-04-13,Vente,150500.0,PL DU DOCTEUR JORROT,21200.0,21054,Beaune,21054000AC0507,4.841851,47.023966
2017-1217815,2017-06-29,Vente,321000.0,RUE DU BOTH,85680.0,85106,La Guérinière,85106000AE1902,-2.249259,46.964819
2017-1253908,2017-12-18,Vente,173000.0,LES CONCISES DE CHAMVRES,89300.0,89079,Chamvres,890790000B0516,3.360312,47.955039
2017-969247,2017-10-03,Vente,135000.0,RTE NATIONALE 6,69400.0,69013,Arnas,69013000AI0120,4.719753,46.000636
2017-950907,2017-07-25,Vente,245000.0,RUE EDMOND ROSTAND,69330.0,69282,Meyzieu,69282000BK0013,5.021429,45.782557
2017-318673,2017-10-05,Vente,79000.0,RUE DE PENHADOR,29750.0,29135,Loctudy,29135000AS0659,-4.177286,47.809903
2017-264640,2017-11-14,Vente,27000.0,LE BUIS,24420.0,24521,Sarliac-sur-l'Isle,24521000AL0251,0.872233,45.222903
2017-90084,2017-06-21,Vente,68000.0,CHAUMARTI,9190.0,9128,Gajan,091280000B0319,1.137234,43.041348
2017-149395,2017-11-02,Vente en l'état futur d'achèvement,134540.0,BD ARISTIDE BRIAND,13140.0,13063,Miramas,13063000BP0252,5.001297,43.577341
2017-1336168,2017-04-04,Vente,125600.0,AV DU PRESIDENT WILSON,93100.0,93048,Montreuil,93048000BQ0052,2.4394,48.853738
2017-1365266,2017-03-10,Vente,382500.0,RUE DES PINCEVENTS,95610.0,95218,Éragny,95218000BL0033,2.095824,49.014341
2017-421084,2017-07-28,Vente en l'état futur d'achèvement,350000.0,RUE DES JACINTHES,33700.0,33281,Mérignac,33281000BZ0173,-0.640169,44.837345
2017-599520,2017-05-23,Vente,42000.0,LE BOURG,42210.0,42075,Craintilleux,420750000A1332,4.235259,45.581816
2017-1113815,2017-12-04,Vente,164000.0,SEN DES TAMARIS,78200.0,78354,Magnanville,78354000AE0149,1.689992,48.975243
2017-1215536,2017-12-22,Vente,52245.0,CHE DU PAS RENAUD,85340.0,85194,Les Sables-d'Olonne,85194166AI0282,,
2017-540169,2017-08-08,Vente,117490.8,RUE PAUL ET GERMAINE VEYRET,38100.0,38185,Grenoble,38185000HI0040,5.714097,45.1619
2017-71467,2017-12-15,Vente,180000.0,SANT BASTIAN BAS,6510.0,6033,Carros,060330000B1987,7.180397,43.80076
2017-1069335,2017-10-19,Vente,239000.0,RUE DU LAVOIR,77111.0,77455,Soignolles-en-Brie,774550000C0673,2.71355,48.642428
2017-1329322,2017-07-05,Vente,295000.0,AV EUGENE LE MOIGN,93150.0,93007,Le Blanc-Mesnil,93007000AR0216,2.467505,48.928728
2017-19614,2017-03-31,Vente,100000.0,LE CHAMP DE FER PERLES,2160.0,2439,Les Septvallons,02439597ZA0016,3.650971,49.336994
2017-482502,2017-01-17,Vente,66500.0,AV DES LAVANDIERES,34300.0,34003,Agde,34003000KB0004,3.525439,43.290556
2017-205774,2017-05-11,Vente,178710.0,RTE DES OUILLIERES,17870.0,17065,Breuil-Magné,17065000AI0031,-0.962649,45.97722
2017-761603,2017-10-12,Vente,131000.0,LE JARDIN DERRIERE,56190.0,56259,La Trinité-Surzur,562590000A1051,-2.599782,47.601491
2017-946674,2017-03-28,Vente,200850.0,AV DE LA GARE,69800.0,69290,Saint-Priest,69290000DI0318,4.935914,45.68911
2017-915811,2017-04-03,Vente,103000.0,RUE PASCAL MARIE AGASSE,66000.0,66136,Perpignan,66136000BW0046,2.877684,42.696639
2017-1008605,2017-11-17,Vente en l'état futur d'achèvement,151600.0,LA PLANTAZ,73490.0,73213,La Ravoire,732130000D0293,5.968398,45.558829
2017-1295209,2017-01-24,Vente en l'état futur d'achèvement,309000.0,RUE DU DOC CALMETTE,92110.0,92024,Clichy,92024000AB0044,2.308457,48.898571
2017-1398505,2017-04-28,Vente,100000.0,RTE NATIONALE 2 BARIL,97442.0,97417,Saint-Philippe,97417000BC0962,,
2017-115388,2017-01-28,Vente,90000.0,ROUQUIES,12150.0,12270,Sévérac d'Aveyron,12270040ZI0029,2.978612,44.358497
2017-180480,2017-04-22,Vente,185700.0,LABRO,15400.0,15049,Cheylade,15049000ZK0007,2.724067,45.206636
2017-1327143,2017-12-20,Vente,227914.0,RUE JULES FERRY,93430.0,93079,Villetaneuse,930790000F0022,2.337735,48.960798
2017-964419,2017-10-02,Vente en l'état futur d'achèvement,198000.0,RUE DES CAILLOUX,69290.0,69069,Craponne,69069000AP0114,,
2017-1133723,2017-03-30,Vente,214000.0,RUE AUX LOUPS,80230.0,80721,Saint-Valery-sur-Somme,80721000AE0331,1.627467,50.184001
2017-432853,2017-06-14,Vente,100000.0,BANASTRAYRE EST,33550.0,33241,Lestiac-sur-Garonne,332410000A0018,-0.377892,44.695889
2017-24026,2017-04-20,Vente,208550.0,LAPIERRE,3340.0,3234,Saint-Gérand-de-Vaux,032340000D0107,3.452554,46.364999
2017-1146220,2017-09-27,Vente,175000.0,IMP DE LA BARRABIE,81300.0,81105,Graulhet,811050000B1502,2.027926,43.770618
2017-190095,2017-12-29,Vente,70000.0,ROUHENAC,16330.0,16393,Vars,163930000L0668,0.118343,45.742424
2017-626275,2017-02-21,Vente,233000.0,RUE DU MOULIN DES LANDES,44840.0,44198,Les Sorinières,44198000AV0294,-1.523905,47.137763
2017-654235,2017-01-13,Vente,98000.0,RUE DE LA VAUDIERE,45140.0,45285,Saint-Jean-de-la-Ruelle,45285000BD0361,1.858012,47.91598
2017-215187,2017-12-19,Vente,37500.0,LE BOURG,17470.0,17471,La Villedieu,17471000AB0113,-0.320876,46.061557
2017-1145855,2017-08-02,Vente,67000.0,RUE ANNE VEAUTE,81100.0,81065,Castres,81065000BN0437,2.245883,43.601796
2017-323757,2017-02-08,Vente,51500.0,RUE DE MEN BRIAL,29280.0,29212,Plouzané,29212000AN0331,-4.621,48.386534
2017-307313,2017-05-05,Vente,137000.0,RUE DE BREEZ,28700.0,28194,Houville-la-Branche,281940000C0328,1.641816,48.444768
2017-1107231,2017-07-04,Vente en l'état futur d'achèvement,239500.0,TERRES DE L EGLISE,78850.0,78615,Thiverval-Grignon,786150000H0395,1.935956,48.842259
2017-942920,2017-10-26,Vente,345000.0,RUE JEAN MARIE CHAVANT,69007.0,69387,Lyon 7e Arrondissement,69387000AE0001,4.847272,45.752051
2017-1225707,2017-10-30,Vente,137000.0,PL DE LA VALLEE BEAUJEAN,86300.0,86031,Bonnes,860310000L1469,,
2017-314184,2017-02-11,Vente,120000.0,LA VALINIERE,28480.0,28331,Saintigny,28331165ZL0069,0.98231,48.362385
2017-1152824,2017-12-11,Vente,60000.0,CHE DE RONDE,82100.0,82033,Castelsarrasin,82033000DD0310,1.104946,44.04365
2017-518775,2017-07-19,Vente,90000.0,LA CALOTTE,36500.0,36232,Vendœuvres,36232000AI0129,1.32824,46.78271
2017-669157,2017-03-31,Vente,224000.0,RUE SYLVAIN RESCOUSSIE,46000.0,46042,Cahors,46042000BZ0066,1.440252,44.45288
2017-751979,2017-07-18,Vente,25000.0,AU VILLAGE,55160.0,55317,Manheulles,553170000D0145,5.591392,49.110795
2017-1294013,2017-11-06,Vente,270000.0,AV CHARLES DE GAULLE,92270.0,92009,Bois-Colombes,920090000F0319,2.276108,48.918787
2017-1263981,2017-10-06,Vente,305000.0,RUE DU CHATEAU DE GROSBOIS,91330.0,91691,Yerres,91691000AI0126,2.509569,48.721721
2017-1434113,2017-08-28,Vente,470000.0,RUE CLAUDE POUILLET,75017.0,75117,Paris 17e Arrondissement,75117000CJ0032,2.314926,48.884227
2017-299724,2017-03-29,Vente,45000.0,LES ELINGUES,27910.0,27338,Les Hogues,273380000A0014,1.384883,49.434183
2017-71739,2017-01-25,Vente,175000.0,AV DU GAL DE GAULLE,6700.0,6123,Saint-Laurent-du-Var,06123000AT0161,7.191995,43.668851
2017-676253,2017-12-12,Vente,82500.0,DELBES,47240.0,47032,Bon-Encontre,47032000AO0379,0.679269,44.187048
2017-813912,2017-04-04,Vente,90000.0,LE VILLAGE,59259.0,59336,Lécluse,593360000A0625,3.037496,50.276561
2017-450844,2017-10-04,Vente,82000.0,RTE DE LACANAU,33121.0,33097,Carcans,33097000CX0114,-1.046286,45.075751
2017-1001777,2017-03-07,Vente en l'état futur d'achèvement,226000.0,LA PLANTAZ,73490.0,73213,La Ravoire,732130000D0293,5.968398,45.558829
2017-909117,2017-05-31,Vente,47000.0,CASTAINGS,65380.0,65080,Bénac,65080000ZD0126,0.017037,43.150439
2017-1322273,2017-03-14,Vente,73000.0,RUE LOUISE MICHEL,93120.0,93027,La Courneuve,93027000AB0066,2.391363,48.930603
2017-795978,2017-07-12,Vente,160000.0,RUE AUGUSTIN HORNAIN,59175.0,59585,Templemars,59585000AA0103,3.058031,50.578246
2017-650287,2017-06-16,Vente,35000.0,PARCS DE LEVENO,44350.0,44069,Guérande,44069000YR0311,-2.390089,47.331674
2017-920100,2017-09-20,Vente,84500.0,BD JOHN FITZGERALD KENNEDY,66100.0,66136,Perpignan,66136000AZ0504,2.904931,42.688624
2017-1035048,2017-03-06,Vente en l'état futur d'achèvement,159000.0,,,74105,Douvaine,741050000D1715,6.293513,46.306341
2017-403104,2017-12-22,Vente,102500.0,AV DE LA 1ERE ARMEE FRANCAISE,32000.0,32013,Auch,32013000AL0631,0.601155,43.650399
2017-1050047,2017-01-09,Vente,40000.0,LE PLATEAU D YAUVILLE,76910.0,76192,Criel-sur-Mer,76192000AC0120,1.324998,50.040815
2017-476063,2017-12-28,Vente terrain à bâtir,97000.0,LOU BOURBOUISSOU,34740.0,34327,Vendargues,34327000AP0342,3.975074,43.666074
2017-1124156,2017-01-27,Vente,118000.0,LES CLAVEAUX,79330.0,79131,Geay,791310000E0020,-0.377182,46.855924
2017-1355694,2017-06-30,Vente,189000.0,AV DE LA MARECHALE,94420.0,94059,Le Plessis-Trévise,94059000AD0463,2.570936,48.812948
2017-598774,2017-03-29,Vente,100000.0,LES AMBREUX,42210.0,42251,Saint-Laurent-la-Conche,422510000D0602,4.231032,45.685215
2017-1210065,2017-04-12,Vente,41800.0,RES LA POINTE DU LAC,85440.0,85288,Talmont-Saint-Hilaire,85288228AY0027,-1.674243,46.443797
2017-986050,2017-12-04,Vente,49050.0,L ACCLOUX,71550.0,71165,Cussy-en-Morvan,711650000G0012,4.145582,47.098762
2017-397938,2017-04-07,Vente,30600.0,LE VILLAGE,31160.0,31131,Cazaunous,311310000A1037,0.732776,42.985853
2017-975316,2017-07-06,Vente,156900.0,RTE DE DOLE,70100.0,70280,Gray-la-Ville,70280000AH0174,5.588904,47.437276
2017-35089,2017-01-17,Vente,85000.0,RTE DE STE MARGUERITE,5000.0,5061,Gap,05061000CL0172,6.07535,44.549703
2017-267406,2017-10-11,Vente,120000.0,LAGUDAL GARE,24140.0,24034,Beleymas,24034000AN0111,0.484311,44.963584
2017-224380,2017-11-21,Vente,120000.0,AU FAO,19370.0,19036,Chamberet,19036000CP0153,1.690935,45.606501
2017-883110,2017-05-12,Vente,169865.0,CHEZ JALLY,63380.0,63339,Saint-Étienne-des-Champs,63339000AP0002,2.595458,45.81918
2017-1090811,2017-03-30,Vente,84270.0,L ORMELOT,77480.0,77187,Fontaine-Fourches,77187000ZE0028,3.390659,48.402803
2017-1108977,2017-09-14,Vente,260000.0,RES DU CLOS BARON,78112.0,78551,Saint-Germain-en-Laye,785512510B0256,2.066463,48.888394
2017-1076553,2017-05-12,Vente,225000.0,RTE DE MORET,77140.0,77302,Montcourt-Fromonville,77302000AB0553,2.7124,48.30969
2017-415633,2017-02-17,Vente,121000.0,AV WINSTON CHURCHILL,33700.0,33281,Mérignac,33281000BY0790,-0.628143,44.833895
2017-245330,2017-09-27,Vente,50000.0,LES GOURDIAS,22960.0,22176,Plédran,221760000H2732,-2.75903,48.445407
2017-1145346,2017-07-04,Vente,180000.0,LES PRADALS,81300.0,81043,Busque,810430000A0907,1.958284,43.78838
2017-1090018,2017-12-22,Vente,175000.0,PL DES VERNES,77500.0,77108,Chelles,77108000BP0042,2.581607,48.884776
2017-47255,2017-02-21,Vente,399000.0,AV CORNICHE FLEURIE,6200.0,6088,Nice,06088000NM0218,7.210137,43.687269
2017-289896,2017-11-22,Vente,30000.0,RUE CORDERIE,26240.0,26333,Saint-Vallier,26333000AP0171,4.814369,45.183376
2017-1352993,2017-12-13,Vente en l'état futur d'achèvement,360000.0,RUE SIMONE VEIL,94320.0,94073,Thiais,94073000AG0222,2.394955,48.756322
2017-885831,2017-03-01,Vente,80000.0,RUE DE LA COUTELLERIE,63300.0,63430,Thiers,63430000AS0412,3.547529,45.852722
2017-1198882,2017-04-06,Vente,265000.0,LA PROUTIERE,85190.0,85300,Venansault,85300000YC0005,-1.535951,46.685665
2017-96040,2017-11-08,Vente,182000.0,RTE DE MERY,10150.0,10352,Sainte-Maure,10352000AD0072,4.061657,48.345314
2017-818659,2017-08-08,Vente,180000.0,LE PIED PERCHON,59138.0,59283,Hargnies,59283000AB0008,3.843599,50.253042
2017-196524,2017-08-10,Vente en l'état futur d'achèvement,277000.0,RUE PASTEUR,17340.0,17094,Châtelaillon-Plage,17094000AC0153,-1.088504,46.076415
2017-489802,2017-03-17,Vente en l'état futur d'achèvement,187400.0,RUE DE VERN,35200.0,35238,Rennes,35238000CE0242,-1.657061,48.098651
2017-1125629,2017-10-06,Vente,120000.0,IMP DES CERISIERS,79350.0,79088,Chiché,79088000AH0275,-0.358736,46.794907
2017-442883,2017-01-20,Vente,235000.0,ROQUENEGRE,33420.0,33350,Rauzan,33350000ZE0242,-0.129648,44.786754
2017-295888,2017-03-18,Vente en l'état futur d'achèvement,138000.0,RUE DE GARENNES,27540.0,27355,Ivry-la-Bataille,273550000A1656,1.460067,48.885435
2017-830792,2017-09-20,Vente,245000.0,LA FOSSE AUGUAY,60175.0,60678,Villeneuve-les-Sablons,60678000ZB0197,2.081014,49.233754
2017-562958,2017-07-11,Vente,177000.0,AU SAUTINET,38160.0,38359,Saint Antoine l'Abbaye,383591450C0455,5.240017,45.194628
2017-1378660,2017-07-18,Vente,183000.0,RUE BERTHIE ALBRECHT,95210.0,95555,Saint-Gratien,95555000AE0707,2.284535,48.96674
2017-22267,2017-02-09,Vente,200000.0,LE MARAIS,2400.0,2114,Brasles,02114000AA0241,3.416505,49.04569
2017-159085,2017-08-18,Vente,37612.0,LE PONT NEUF,13210.0,13100,Saint-Rémy-de-Provence,13100000CN0039,4.813473,43.809614
2017-372809,2017-08-31,Vente,22800.0,PL DUPUY,31000.0,31555,Toulouse,31555821AC0415,1.454417,43.600652
2017-1310039,2017-07-20,Vente,225000.0,IMP DE LA TOUR,92140.0,92023,Clamart,92023000AQ0102,2.267313,48.78951
2017-1244756,2017-04-08,Vente,140000.0,CHE DE LA CROIX DES OISEAUX,88400.0,88196,Gérardmer,881960000F2633,6.835156,48.070281
2017-946644,2017-03-13,Vente,174000.0,RUE LEON FABRE,69100.0,69266,Villeurbanne,69266000BH0054,4.873973,45.778485
2017-325282,2017-05-31,Vente,85000.0,CLEGUER,29830.0,29178,Ploudalmézeau,29178000AO0204,-4.687881,48.566827
2017-202370,2017-07-10,Vente,129000.0,RUE DE LA PROVIDENCE,17200.0,17306,Royan,17306000AK0842,-1.026525,45.628345
2017-416932,2017-04-11,Vente en l'état futur d'achèvement,169000.0,AV LEON BLUM,33700.0,33281,Mérignac,33281000BO0422,-0.644173,44.853045
2017-1108632,2017-09-08,Vente,279750.0,CHE DE LA VIEILLE BUTTE,78100.0,78551,Saint-Germain-en-Laye,78551000AV0001,2.067449,48.898333
2017-491301,2017-05-16,Vente,24020.0,LA JAUNAIE,35850.0,35216,Parthenay-de-Bretagne,352160000A0364,-1.822314,48.185963
2017-139868,2017-08-11,Vente en l'état futur d'achèvement,245000.0,RUE DE LA GRANIERE,13011.0,13211,Marseille 11e Arrondissement,132118670B0276,5.456578,43.28846
2017-33666,2017-09-06,Vente,219500.0,LOT L AIGUEBELLE,4280.0,4045,Céreste,040450000F1344,5.594482,43.856118
2017-90791,2017-08-23,Vente,28000.0,LESCARRA,9140.0,9113,Ercé,091130000E2280,1.287841,42.83805
2017-467517,2017-02-14,Vente,212000.0,LES CAUCANASSES,34540.0,34023,Balaruc-les-Bains,34023000BE0392,3.704083,43.450524
2017-413007,2017-11-20,Vente,213700.0,BD ALFRED DANEY,33300.0,33063,Bordeaux,33063000RM0136,-0.573566,44.866296
2017-1273782,2017-10-12,Vente en l'état futur d'achèvement,205500.0,LA FOURCHE,91220.0,91103,Brétigny-sur-Orge,91103000BD0214,2.295099,48.603453
2017-1189758,2017-11-14,Vente,87000.0,LES FERRAILLES EST,84170.0,84080,Monteux,840800000M2765,4.991333,44.035523
2017-1179190,2017-04-14,Vente,330000.0,RUE DE LA PAROISSE,83150.0,83009,Bandol,83009000AI0221,5.754689,43.136494
2017-682451,2017-12-07,Vente,104000.0,COSTES VIEILLES,48100.0,48092,Marvejols,480920000C0332,3.278164,44.545944
2017-960589,2017-01-03,Vente,298300.0,CHE DE LA BRUYERE,69570.0,69072,Dardilly,69072000AM0018,4.769658,45.815665
2017-573591,2017-07-24,Vente,197000.0,CHE DE BERDIS,40270.0,40117,Grenade-sur-l'Adour,401170000C0325,-0.425527,43.793529
2017-1024827,2017-10-13,Vente,88000.0,RTE DE BONNEVILLE,74100.0,74012,Annemasse,740120000A4297,6.235815,46.185815
2017-1226713,2017-12-20,Vente,400000.0,RUE CAMILLE GIRAULT,86180.0,86041,Buxerolles,86041000CB0154,0.35553,46.603018
2017-1296063,2017-04-05,Vente,540000.0,BD DU GENERAL LECLERC,92200.0,92051,Neuilly-sur-Seine,920510000F0067,2.259027,48.888522
2017-419749,2017-06-28,Vente,355000.0,RUE MORION,33800.0,33063,Bordeaux,33063000BT0043,-0.553632,44.825649
2017-591084,2017-03-07,Vente,31500.0,RUE HENRI GONNARD,42000.0,42218,Saint-Étienne,42218000PT0025,4.386128,45.434319
2017-705180,2017-09-17,Vente,365000.0,AV DES DUNES,50610.0,50066,Jullouville,50066000AP0280,-1.569884,48.765523
2017-638126,2017-03-01,Vente,170000.0,RES DU GOLF,44210.0,44131,Pornic,44131177BH0249,-2.118245,47.118939
2017-1407716,2017-01-13,Vente,460000.0,RUE DE BELLEFOND,75009.0,75109,Paris 9e Arrondissement,75109000BE0108,2.345586,48.878319
2017-48719,2017-06-30,Vente en l'état futur d'achèvement,241500.0,BD JEAN BEHRA,6100.0,6088,Nice,06088000DZ0494,7.243666,43.728652
2017-657961,2017-08-29,Vente,65000.0,ALL DES VERDIERS,45160.0,45232,Olivet,45232000AN0218,1.906977,47.877147
2017-1366409,2017-05-17,Vente en l'état futur d'achèvement,292000.0,LE BOQUET,95480.0,95488,Pierrelaye,95488000AB0952,2.151891,49.02641
2017-130781,2017-02-28,Vente,375000.0,BD DES ALISIERS,13009.0,13209,Marseille 9e Arrondissement,132098470H0074,5.416021,43.258099
2017-953382,2017-11-07,Vente,202000.0,RUE SPREAFICO,69100.0,69266,Villeurbanne,69266000BH0143,4.87284,45.776951
2017-858705,2017-05-19,Vente,90000.0,RUE EMILE ZOLA,62420.0,62133,Billy-Montigny,62133000AB0944,2.911337,50.41604
2017-269013,2017-09-08,Vente,195650.0,RUE DU FER A CHEVAL,24410.0,24316,Parcoul-Chenaud,24316000ZE0095,0.035872,45.202919
2017-823010,2017-01-09,Vente,110000.0,RUE DU VERGER,59300.0,59606,Valenciennes,59606000AH0814,3.490902,50.356669
2017-37686,2017-07-28,Vente,24000.0,SERRE PARATRE,5600.0,5134,Saint-Clément-sur-Durance,051340000B0338,6.571848,44.654135
2017-1164440,2017-06-02,Vente,40000.0,RUE PARADIS,83670.0,83084,Montmeyan,830840000I0243,6.063225,43.645803
2017-1253065,2017-06-07,Vente,200000.0,LE CHALONGE,89500.0,89142,Dixmont,891420000G1621,3.405202,48.066826
2017-942017,2017-09-12,Vente en l'état futur d'achèvement,259200.0,RUE JEANNE D ARC,69003.0,69383,Lyon 3e Arrondissement,69383000DH0006,4.882205,45.750517
2017-68951,2017-02-24,Vente,285000.0,AV DE BOUTINY,6530.0,6095,Peymeinade,06095000AH0125,6.884405,43.647215
2017-692435,2017-05-10,Vente,170000.0,RUE DES BONS ENFANTS,49300.0,49099,Cholet,49099000AS0326,-0.877757,47.062876
2017-561324,2017-11-28,Vente,285000.0,COMBE DU PORT,38550.0,38425,Saint-Maurice-l'Exil,38425000AH0442,4.786501,45.376236
2017-702643,2017-12-15,Vente,155000.0,PUTANGES,50750.0,50546,Bourgvallées,50546000ZB0043,-1.114574,49.051193
2017-190356,2017-02-01,Vente,176600.0,RTE DES GRANDS CHAMPS,16130.0,16150,Gensac-la-Pallue,16150000AH0082,-0.270896,45.669883
2017-563224,2017-08-01,Vente en l'état futur d'achèvement,214157.0,AV DU VERCORS,38430.0,38400,Saint-Jean-de-Moirans,38400000AN0135,5.594323,45.34796
2017-629402,2017-05-24,Vente,170000.0,RUE DES BASCLOTIERES,44270.0,44087,Machecoul-Saint-Même,44087000BE0059,-1.833816,46.98861
2017-298048,2017-09-16,Vente,137000.0,RUE D ARGENTAN,27160.0,27112,Breteuil,27112000AE0321,0.908086,48.837117
2017-1146091,2017-09-14,Vente,146734.0,MALATERRE,81500.0,81104,Giroussens,811040000B0378,1.845151,43.772864
2017-27336,2017-12-14,Vente,153500.0,AV DE VICHY,3200.0,3001,Abrest,03001000AH0002,3.444443,46.099986
2017-1435007,2017-11-13,Vente,380000.0,RUE DULONG,75017.0,75117,Paris 17e Arrondissement,75117000CJ0094,2.316937,48.884411
2017-1224783,2017-09-25,Vente,32650.0,LES FONTENELLES,86250.0,86266,Surin,86266000ZD0015,0.388776,46.080557
2017-245818,2017-10-26,Vente,51000.0,LA VALLEE COULON,22190.0,22187,Plérin,221870000F0531,-2.790568,48.536855
2017-963872,2017-09-08,Vente,236067.1,ALL DES HETRES,69760.0,69116,Limonest,691160000I0985,4.774753,45.807983
2017-508011,2017-09-27,Vente,58000.0,RUE DU GENERAL DE GAULLE,35550.0,35219,Pipriac,35219000AB0798,-1.945358,47.809746
2017-597853,2017-12-29,Vente,59323.0,RUE MARCEL HOLTZER,42490.0,42099,Fraisses,42099000AE0223,4.267337,45.388097
2017-1203414,2017-11-08,Vente,325508.0,L ORVOIRE,85500.0,85109,Les Herbiers,85109000XR0029,,
2017-1292243,2017-07-20,Vente en l'état futur d'achèvement,247000.0,PAS DES VIGNES,92250.0,92035,La Garenne-Colombes,920350000J0336,2.249444,48.903018
2017-532856,2017-11-24,Vente,144000.0,DERRIERE LE PARC,37320.0,37104,Esvres,371040000E2791,0.784938,47.287429
2017-948123,2017-05-04,Vente,100000.0,RTE DE GENAS,69500.0,69029,Bron,690290000A0861,4.910012,45.750129
2017-851802,2017-10-04,Vente,156750.0,RUE FRANCOIS LEFEBVRE,62210.0,62065,Avion,62065000AH0056,2.831623,50.413849
2017-546048,2017-08-29,Vente,118145.0,LE CUCHERON,38380.0,38442,Saint-Pierre-de-Chartreuse,384420000A0245,5.829882,45.361524
2017-211012,2017-10-19,Vente,56867.0,LA RIQUOTTERIE,17800.0,17227,Mazerolles,17227000ZB0178,-0.594285,45.571148
2017-191665,2017-10-31,Vente,155000.0,GROLLET,16130.0,16316,Saint-Fort-sur-le-Né,163160000C1066,-0.299443,45.571699
2017-209968,2017-07-24,Vente,377000.0,RUE DE CHEZ DOUTEAU,17600.0,17119,Corme-Écluse,171190000C0914,-0.853475,45.631949
2017-294275,2017-10-31,Vente,116000.0,FONTDAVIN,26740.0,26338,Sauzet,26338000ZD0574,4.820253,44.598811
2017-1102176,2017-09-19,Vente en l'état futur d'achèvement,250000.0,RUE GAMBETTA,78800.0,78311,Houilles,78311000AR0779,2.187489,48.921473
2017-258575,2017-08-09,Vente en l'état futur d'achèvement,30000.0,LES RIBIERES,23250.0,23168,Sardent,23168000ZA0077,1.805463,46.055837
2017-910473,2017-10-14,Vente,80000.0,RTE D ARPAJAN,65670.0,65315,Monléon-Magnoac,653150000C0068,0.533336,43.241795
2017-554484,2017-07-04,Vente,57000.0,ROI BON,38730.0,38098,Chélieu,380980000B0658,5.491185,45.504568
2017-739842,2017-06-26,Vente,49500.0,LES CHENEVIERES SOUS LES V,54740.0,54252,Haroué,542520000C0533,6.180244,48.469462
2017-210593,2017-09-26,Vente,53650.51,MARAIS DE TALMONT,17120.0,17437,Talmont-sur-Gironde,174370000A0082,-0.896718,45.549903
2017-438862,2017-10-09,Vente,50000.0,RUE DE LA FRATERNITE,33730.0,33336,Préchac,33336000AD0086,-0.356049,44.397782
2017-602381,2017-12-29,Vente,65125.0,SUR LA MAISON,42380.0,42146,Montarcher,42146000AE0081,3.995844,45.454127
2017-268465,2017-04-12,Vente,40000.0,LES DUELLAS,24700.0,24449,Saint-Martial-d'Artenset,24449000ZC0074,0.210038,45.022943
2017-1264952,2017-11-20,Vente,135430.0,RUE DE KERANNA,91330.0,91691,Yerres,91691000AL0050,2.507733,48.712887
2017-509471,2017-02-27,Vente,128000.0,BD DES TALARDS,35400.0,35288,Saint-Malo,35288000AV0094,-2.008705,48.645052
2017-737081,2017-02-13,Vente,205000.0,RUE VICTOR HUGO,54130.0,54482,Saint-Max,54482000AI0452,6.20796,48.701406
2017-24050,2017-04-19,Vente,111000.0,RUE JEAN MERMOZ,3400.0,3321,Yzeure,03321000BL0203,3.358593,46.554095
2017-665983,2017-05-16,Vente,117000.0,RUE DE LA VALLEE,45330.0,45013,Augerville-la-Rivière,450130000C0700,2.437095,48.25273
2017-563697,2017-11-14,Vente,307000.0,BUISSONNIERE,38470.0,38559,Vinay,38559000AM0083,5.416332,45.200971
2017-737443,2017-03-02,Vente,89500.0,RUE DES TANNERIES,54000.0,54395,Nancy,54395000AO0083,6.190003,48.697366
2017-1136480,2017-12-18,Vente,96500.0,RUE DU HOULET,80520.0,80827,Woincourt,808270000A0128,1.541367,50.070072
2017-118569,2017-12-27,Vente,152500.0,FARROU,12200.0,12242,Saint-Rémy,122420000A0613,2.04548,44.38483
2017-1315352,2017-02-17,Vente en l'état futur d'achèvement,135000.0,,,93063,Romainville,93063000AC0094,2.441247,48.881909
2017-821207,2017-06-15,Vente,48000.0,RUE NEGRIER,59540.0,59139,Caudry,59139000AH0611,3.417153,50.130343
2017-821916,2017-09-08,Vente,205000.0,BD DE LA LIBERTE,59400.0,59122,Cambrai,59122000BY0215,3.222816,50.173617
2017-396558,2017-11-09,Vente,250000.0,LA CROIX BLANCHE,31600.0,31165,Eaunes,31165000AH0329,1.362103,43.427593
2017-1295282,2017-01-26,Vente,291000.0,RUE FERDINAND BUISSON,92110.0,92024,Clichy,920240000M0025,2.299676,48.901266
2017-104241,2017-11-21,Vente,92000.0,LE VILLAGE,11400.0,11138,Fendeille,11138000AA0173,1.94209,43.268168
2017-546771,2017-10-20,Vente,120000.0,LE VILLAGE,38950.0,38423,Saint-Martin-le-Vinoux,38423000AT0381,5.716752,45.202726
2017-954857,2017-12-12,Vente en l'état futur d'achèvement,157000.0,RUE DU QUATRE AOUT,69100.0,69266,Villeurbanne,69266000BO0110,4.880693,45.765203
2017-781758,2017-12-22,Vente,60000.0,LE BOURG,58450.0,58193,Neuvy-sur-Loire,58193000AE0046,2.883443,47.523115
2017-757616,2017-04-27,Vente,269664.34,RUE PERE A. PILLON S.J.,56000.0,56260,Vannes,56260000EC0166,-2.741207,47.649038
2017-575969,2017-12-19,Echange,25000.0,MARLENX OUEST,40210.0,40163,Lüe,401630000M0285,-1.015903,44.214464
2017-828993,2017-03-31,Vente,211000.0,LE VILLAGE,60570.0,60330,Laboissière-en-Thelle,603300000B0494,2.158279,49.292999
2017-217901,2017-09-04,Vente,58000.0,RUE DES BIGARELLES,18000.0,18033,Bourges,18033000CI0207,2.42409,47.079031
2017-637560,2017-01-11,Vente,66800.0,LE GOTHA,44320.0,44061,Frossay,44061000YO0357,-1.940367,47.244742
2017-329562,2017-03-30,Vente,102000.0,RTE DE GOAREM COZ,29470.0,29189,Plougastel-Daoulas,29189000BB0229,-4.371779,48.378152
2017-266616,2017-07-12,Vente,200000.0,LA MOUTHE,24440.0,24307,Naussannes,243070000B0271,0.735859,44.735614
2017-354562,2017-12-01,Vente,32000.0,TREMONTEL,30190.0,30248,Saint-Dézéry,30248000AB0211,4.272479,44.00476
2017-348272,2017-03-27,Vente,321400.0,RUE DES AGATHS,30920.0,30083,Codognan,30083000AD0095,4.217559,43.734123
2017-1305869,2017-02-01,Vente,170000.0,RUE ANDRE CHENIER,92130.0,92040,Issy-les-Moulineaux,92040000AF0187,2.271849,48.82334
2017-865917,2017-12-22,Vente,211000.0,RUE CHAMBERLAND,62730.0,62548,Marck,62548000AI0496,1.947387,50.945947
2017-391407,2017-09-04,Vente,112799.36,CHE TOULOUSAIN,31650.0,31036,Auzielle,310360000A0917,1.567381,43.545645
2017-1255306,2017-09-14,Vente,120000.0,BD MAUPEOU,89100.0,89387,Sens,89387000AI0223,3.278402,48.199466
2017-1167169,2017-10-20,Vente,407000.0,RTE DU LUC,83340.0,83026,Cabasse,830260000C0837,6.249876,43.418029
2017-905455,2017-01-06,Vente,239000.0,AV DE LISSARDY,64700.0,64260,Hendaye,64260000AT0208,-1.764667,43.368515
2017-924480,2017-03-14,Vente,463022.0,LES ESCOMELLES,66560.0,66129,Ortaffa,66129000AL0399,2.916764,42.579191
2017-589258,2017-03-13,Vente,488000.0,L ETANG DE VAUGOUIN,41600.0,41161,Nouan-le-Fuzelier,41161000AM0396,2.022541,47.529702
2017-441069,2017-11-28,Vente,185000.0,RUE JEHENNE,33120.0,33009,Arcachon,33009000AE0747,-1.173746,44.661853
2017-529273,2017-12-27,Vente en l'état futur d'achèvement,210000.0,,,37195,La Riche,37195000AP0876,0.658939,47.3866
2017-936533,2017-12-18,Vente en l'état futur d'achèvement,203000.0,RUE DU CAP FERBER,69300.0,69034,Caluire-et-Cuire,69034000BI0006,4.826883,45.790684
2017-628282,2017-04-07,Vente,200000.0,RUE DU PETIT SAINT JEAN,44700.0,44114,Orvault,44114000CX0117,-1.592313,47.251747
2017-1288861,2017-02-03,Vente en l'état futur d'achèvement,423000.0,AV DES GRESILLONS,92600.0,92004,Asnières-sur-Seine,92004000BC0368,2.314375,48.917564
2017-311208,2017-07-24,Vente,56000.0,PL DU MARCHE,28800.0,28051,Bonneval,28051000AB0413,1.386149,48.181472
2017-178278,2017-12-28,Vente,495000.0,AV DES TILLEULS,14510.0,14338,Houlgate,14338000AC0133,-0.080213,49.298975
2017-633472,2017-09-25,Vente,80000.0,AV DU GENERAL DE GAULLE,44119.0,44066,Grandchamps-des-Fontaines,440660000G0779,,
2017-1279875,2017-07-11,Vente en l'état futur d'achèvement,135000.0,AV DE PROVENCE,91940.0,91692,Les Ulis,91692000BN0140,2.176048,48.676377
2017-293771,2017-08-30,Vente,180200.0,CHE DE PASCAL,26200.0,26198,Montélimar,26198000ZH0546,4.771957,44.566806
2017-899589,2017-04-05,Vente en l'état futur d'achèvement,168500.0,RUE JEANNE PEYRE,64100.0,64102,Bayonne,64102000AR0262,-1.457887,43.496813
2017-646707,2017-09-15,Vente,240000.0,ALL DES PERVENCHES,44600.0,44184,Saint-Nazaire,44184000CY0296,-2.246904,47.260138
2017-178986,2017-07-20,Vente,196500.0,PL SAINTE ANNE - VIRE,14500.0,14762,Vire Normandie,14762000AE0400,-0.887297,48.836097
2017-339598,2017-05-02,Vente en l'état futur d'achèvement,109000.0,BODICCIONE,20090.0,2A004,Ajaccio,2A004000BD0584,8.753858,41.941528
2017-1047121,2017-04-25,Vente en l'état futur d'achèvement,264000.0,LES ROUGES TERRES,76230.0,76108,Bois-Guillaume,76108000AI0400,1.127591,49.473656
2017-532839,2017-11-20,Vente,330000.0,IMP DU CHATEAU D EAU,37260.0,37159,Monts,37159000AY0155,0.657982,47.276614
2017-778036,2017-07-07,Vente,75000.0,RUE DES CLOUS,58470.0,58152,Magny-Cours,58152000AA0049,3.141774,46.888052
2017-450452,2017-07-27,Vente,79000.0,AV D AFGHANISTAN,33590.0,33193,Grayan-et-l'Hôpital,33193000AC0001,-1.133883,45.413709
2017-260694,2017-11-17,Vente,50000.0,CHAMP DU LEVREAU,23260.0,23225,Saint-Oradoux-près-Crocq,232250000C0095,2.38992,45.892472
2017-1207184,2017-10-23,Vente,30930.0,LE CHAPEAU ROUGE,85120.0,85059,La Châtaigneraie,85059000ZA0485,-0.744759,46.641548
2017-49585,2017-08-25,Vente,155000.0,AV CYRILLE BESSET,6100.0,6088,Nice,06088000EA0573,7.249368,43.721651
2017-157900,2017-05-05,Vente,247000.0,RUE DES THERMES,13200.0,13004,Arles,13004000AD0281,4.626843,43.678016
2017-1105050,2017-02-28,Vente,106000.0,RUE STENDHAL,78130.0,78440,Les Mureaux,78440000AV0945,1.908521,48.980343
2017-127092,2017-07-06,Vente,110000.0,RUE MARENGO,13006.0,13206,Marseille 6e Arrondissement,132068240A0222,5.385217,43.288047
2017-148194,2017-09-29,Vente,160325.0,RUE AUMONE VIEILLE,13100.0,13001,Aix-en-Provence,13001000AB0334,5.445813,43.528357
2017-735377,2017-09-08,Vente,30000.0,RUE DE DOUCE,53160.0,53122,Jublains,531220000A0610,-0.494135,48.256391
2017-1204404,2017-01-06,Vente,267000.0,LE CHUCHILLON,85370.0,85158,Mouzeuil-Saint-Martin,85158000XB0072,-1.006303,46.44811
2017-368256,2017-04-28,Vente,90000.0,RUE BAYARD,31000.0,31555,Toulouse,31555822AB0195,1.451282,43.611037
2017-471770,2017-07-25,Vente,220000.0,MAS DE PACHE,34400.0,34145,Lunel,34145000BM0351,4.113286,43.677333
2017-1293105,2017-09-22,Vente en l'état futur d'achèvement,304000.0,RUE DU CAPITAINE GUYNEMER,92270.0,92009,Bois-Colombes,920090000U0071,2.263194,48.907494
2017-98870,2017-10-26,Vente,125500.0,IMP DU CHANT DE L ALOUETTE,10100.0,10323,Romilly-sur-Seine,10323000BN0643,3.727772,48.50078
2017-768787,2017-03-03,Vente,249000.0,RUE JEAN MARIE BARRE,56400.0,56007,Auray,56007000AP0227,-2.98437,47.66727
2017-24100,2017-05-05,Vente,133400.0,RTE DE BOURGOGNE,3400.0,3321,Yzeure,03321000CE0327,3.35095,46.571233
2017-50277,2017-10-24,Vente,25000.0,RUE CHATEAUNEUF,6000.0,6088,Nice,06088000KX0053,7.254648,43.700893
2017-936497,2017-12-19,Vente en l'état futur d'achèvement,177480.0,AV LOUIS DUFOUR,69300.0,69034,Caluire-et-Cuire,69034000AO0361,4.850933,45.800666
2017-354823,2017-12-22,Vente,110000.0,VILLEMAGNE,30750.0,30297,Saint-Sauveur-Camprieu,302970000C0398,3.433624,44.122258
2017-371443,2017-08-03,Vente en l'état futur d'achèvement,295000.0,CHE DES IZARDS,31200.0,31555,Toulouse,31555830AH0028,1.442544,43.651244
2017-1313677,2017-12-12,Vente,181900.0,RUE GUY MOQUET,92240.0,92046,Malakoff,920460000L0005,2.30169,48.817406
2017-123707,2017-11-29,Vente,51300.0,AV ALPHEE CARTIER,13003.0,13203,Marseille 3e Arrondissement,132038130H0138,5.378326,43.313065
2017-1088533,2017-10-18,Vente,214600.0,RUE BERTRAND FLORNOY,77100.0,77284,Meaux,77284000BI0835,2.886454,48.954251
2017-595450,2017-05-29,Vente,167950.0,AUX RAMEAUX,42660.0,42286,Saint-Romain-les-Atheux,42286000AE0069,4.382322,45.354785
2017-1159227,2017-10-04,Vente,225240.0,AV DE SAINT LAMBERT,83600.0,83061,Fréjus,83061000AX0462,6.749533,43.440321
2017-603962,2017-06-03,Vente,92000.0,BD GENERAL LECLERC,42190.0,42052,Charlieu,42052000AT0065,4.170501,46.16066
2017-602540,2017-01-17,Vente,64200.0,COMMIERE,42300.0,42332,Villerest,42332000BH0173,4.052603,46.015187
2017-1002489,2017-04-06,Vente,62161.0,AV DE LA LIBERATION,73400.0,73303,Ugine,733030000D1294,6.412364,45.751129
2017-82508,2017-10-31,Vente,85000.0,LES QUEIRAS,7270.0,7073,Le Crestet,07073000AI0436,4.655826,45.01616
2017-1182063,2017-09-05,Vente,328805.0,CHE DU CANAL,83660.0,83033,Carnoules,830330000A1070,,
2017-383261,2017-06-29,Vente,81000.0,BD DE LARRAMET,31300.0,31555,Toulouse,31555844AE0537,1.417197,43.591889
2017-498434,2017-12-13,Vente,320000.0,LA MAISON NEUVE,35520.0,35059,La Chapelle-des-Fougeretz,35059000AP0019,-1.758722,48.170108
2017-196454,2017-08-16,Vente,90000.0,QUAI LOUIS DURAND,17000.0,17300,La Rochelle,17300000EO0249,-1.147421,46.158428
2017-682137,2017-09-27,Vente,180000.0,CHON DEL SERIEYRE,48240.0,48152,Ventalon en Cévennes,481520000A1011,3.845861,44.30027
2017-359839,2017-10-24,Vente,430000.0,AV GENERAL LECLERC,30400.0,30351,Villeneuve-lès-Avignon,30351000CN0009,4.779011,43.957585
2017-10462,2017-01-03,Vente,101325.0,EN CHAZOS,1090.0,1183,Guéreins,011830000A1046,4.781321,46.109732
2017-183101,2017-01-30,Vente,185000.0,LE GRAND MAINE,16300.0,16342,Saint-Palais-du-Né,163420000D1213,-0.268094,45.537182
2017-732687,2017-03-23,Vente,240872.56,LE PRE DE LA PETITE CHRETI,53200.0,53066,Chemazé,530660000B0328,-0.78994,47.782082
2017-1073177,2017-07-03,Vente,372830.0,RUE DU MOUTIER,77450.0,77315,Montry,773150000B0790,2.825031,48.884245
2017-478457,2017-06-07,Vente,47000.0,RUE BASSE,34220.0,34284,Saint-Pons-de-Thomières,34284000AC0414,2.762177,43.487722
2017-776754,2017-01-31,Vente,44420.0,LA COPINE,58300.0,58055,Champvert,58055000AA0019,3.48699,46.840783
2017-335697,2017-04-20,Vente,71000.0,MOULIN MARAN,29600.0,29207,Plourin-lès-Morlaix,292070000A0863,-3.792894,48.555466
2017-559922,2017-08-02,Vente,133000.0,PROM DE CASSIOPEE,38080.0,38193,L'Isle-d'Abeau,38193000EK0254,5.205272,45.620365
2017-1225049,2017-09-26,Vente,105000.0,RTE DE BEAUVOIR,86550.0,86157,Mignaloux-Beauvoir,861570000E0609,0.427304,46.531031
2017-1165811,2017-08-31,Vente,259500.0,PEADE DE LA MULE,83470.0,83125,Seillons-Source-d'Argens,831250000B0114,5.879138,43.507178
2017-1082183,2017-04-10,Vente,310555.0,RUE DE DAMPMART,77400.0,77464,Thorigny-sur-Marne,77464000AP0512,2.725364,48.883854
2017-545555,2017-07-21,Vente,436000.0,CHE DE SAINT GEORGES,38410.0,38529,Vaulnaveys-le-Haut,38529000AB0528,5.825851,45.131675
2017-260382,2017-07-25,Vente,84100.0,VALLANSANGES,23130.0,23159,Puy-Malsignat,231590000A0074,2.204178,46.049518
2017-1149558,2017-07-20,Vente,486036.0,LA VAYSSE,82160.0,82147,Puylagarde,821470000D1046,1.841096,44.288202
2017-604284,2017-07-13,Vente,50000.0,RUE SAINT ALBAN,42300.0,42187,Roanne,42187000AX1299,4.056054,46.036142
2017-1050617,2017-04-04,Vente,39360.0,RUE DOC ROUX,76260.0,76255,Eu,76255000AD0696,1.415717,50.044401
2017-514831,2017-03-17,Vente,140000.0,RUE CAMILLE CLAUDEL,35500.0,35360,Vitré,35360000CO0162,-1.19205,48.103721
2017-1354466,2017-02-13,Vente,300000.0,AV DES PERVENCHES,94290.0,94077,Villeneuve-le-Roi,94077000AR0063,2.419489,48.730502
2017-708775,2017-01-05,Vente,248000.0,L'ALEXANDRERIE,50210.0,50437,Roncey,504370000A0555,-1.343101,48.976625
2017-989339,2017-04-28,Vente,57000.0,RUE DE FUNAY,72100.0,72181,Le Mans,72181000EO0350,0.220611,47.984059
2017-606678,2017-01-26,Vente,48000.0,LE MEYGAL SUD,43260.0,43200,Saint-Julien-Chapteuil,432000000B1960,4.104295,45.039032
2017-712386,2017-07-27,Vente,50000.0,LE PETIT CLOS DE HAUT,50630.0,50593,Teurthéville-Bocage,505930000D0498,-1.391712,49.568596
2017-192273,2017-01-06,Vente,175000.0,AV DE PRAGUE,17000.0,17300,La Rochelle,17300000BZ0123,-1.17611,46.170108
2017-301039,2017-01-18,Vente,75000.0,LE MESNIL - LA BARRE EN OU,27330.0,27049,Mesnil-en-Ouche,27049041ZD0020,0.680707,48.943873
2017-799838,2017-12-18,Vente en l'état futur d'achèvement,146500.0,AV ROGER SALENGRO,59320.0,59286,Haubourdin,59286000AK1097,2.990371,50.603496
2017-307741,2017-05-27,Vente,250000.0,RUE DU PRESSOIR,28600.0,28220,Luisant,28220000AH0501,1.467636,48.424117
2017-412983,2017-12-05,Vente,270000.0,BD ALFRED DANEY,33300.0,33063,Bordeaux,33063000RM0136,-0.573566,44.866296
2017-583094,2017-01-06,Vente,125000.0,RUE DES LICES,41000.0,41018,Blois,41018000DN0952,1.328464,47.58467
2017-852512,2017-11-30,Vente,63000.0,RUE DU GENERAL FRERE,62450.0,62387,Grévillers,623870000C0051,2.81243,50.106344
2017-1117566,2017-10-11,Vente,193000.0,RUE DE LA POMMERAIE,78120.0,78517,Rambouillet,78517000BN0218,1.853859,48.644344
2017-98992,2017-11-07,Vente,155000.0,RUE HERBESACE,10100.0,10323,Romilly-sur-Seine,10323000AO0250,3.746702,48.510365
2017-327562,2017-10-18,Vente,165000.0,RUE DU COMMANDANT DROGOU,29200.0,29019,Brest,29019000AB0244,-4.507336,48.406799
2017-971578,2017-06-27,Vente,44829.4,CHAMPS DE LA BROSSE,70200.0,70178,La Côte,701780000A0519,6.586304,47.689478
2017-755546,2017-01-13,Vente,270000.0,PL DE LA MAIRIE,56880.0,56164,Ploeren,56164000AB0198,-2.865431,47.656467
2017-266598,2017-07-06,Vente,116000.0,SPINGUELEBRE SUD,24130.0,24340,Prigonrieux,24340000ZD0199,0.393918,44.881358
2017-760144,2017-08-25,Vente,123000.0,RUE AMIRAL PIERRE RONARC'H,56000.0,56260,Vannes,56260000CK0658,-2.772901,47.639897
2017-679064,2017-03-30,Vente,190000.0,GRANDE-PIECE,47300.0,47323,Villeneuve-sur-Lot,47323000DR0046,0.731912,44.40112
2017-367232,2017-03-28,Vente en l'état futur d'achèvement,100000.0,AV DE CASTRES,31500.0,31555,Toulouse,31555835AD0226,1.487617,43.59538
2017-847968,2017-08-10,Vente,230000.0,LA MOUSSE,61300.0,61456,Saint-Sulpice-sur-Risle,61456000ZW0044,0.615517,48.771285
2017-369988,2017-06-23,Vente,343000.0,RUE ALFRED DUMERIL,31400.0,31555,Toulouse,31555814AB0382,1.44976,43.591789
2017-76114,2017-04-07,Vente,155300.0,LES COMBES NORD,7140.0,7100,Gravières,071000000A0613,4.055978,44.437911
2017-767563,2017-11-17,Vente en l'état futur d'achèvement,110000.0,RUE MARCEL SEMBAT,56600.0,56098,Lanester,56098000AC0348,-3.345484,47.76628
2017-779973,2017-05-24,Vente,80000.0,LE BOURG,58190.0,58170,Monceaux-le-Comte,58170000AB0077,3.661142,47.329076
2017-717729,2017-10-31,Vente,160000.0,FACELLE,51700.0,51644,Vincelles,516440000D2581,3.638746,49.08249
2017-242583,2017-03-31,Vente,173500.0,ROUTE DE LA CORNICHE,22580.0,22222,Plouha,222220000A0024,-2.949574,48.727007
2017-529530,2017-04-11,Vente,233000.0,L ECHENEAU,37210.0,37281,Vouvray,37281000BL0401,0.795012,47.411136
2017-113232,2017-06-27,Vente en l'état futur d'achèvement,141000.0,RUE COMBAREL,12000.0,12202,Rodez,12202000AE0374,2.569784,44.349346
2017-970472,2017-06-13,Adjudication,335000.0,RTE DE LA GRAND RAIE,69220.0,69218,Saint-Lager,69218000AE0246,4.694235,46.100522
2017-256203,2017-08-01,Vente,82600.0,FAVENO,22570.0,22107,Bon Repos sur Blavet,22107000ZC0013,-3.115465,48.256796
2017-580250,2017-08-03,Vente,147100.0,AV CHARLES DE GAULLE,40530.0,40133,Labenne,40133000AK0239,-1.422562,43.596804
2017-125072,2017-02-17,Vente,370750.0,BD FERNAND BONNEFOY,13010.0,13210,Marseille 10e Arrondissement,132108550R0079,5.400962,43.280846
2017-1255633,2017-11-16,Vente,33000.0,RUE DES CHARMES,89100.0,89387,Sens,89387000BD0235,3.287404,48.194746
2017-994948,2017-07-28,Vente,70000.0,AV DU MANS,72500.0,72071,Montval-sur-Loir,72071000AT0080,0.412988,47.699413
2017-257697,2017-04-11,Vente,44000.0,DES ROCHERS,23140.0,23243,Saint-Silvain-sous-Toulx,232430000D0378,2.21444,46.250323
2017-788904,2017-10-23,Vente en l'état futur d'achèvement,291000.0,RUE EDOUARD VAILLANT,59155.0,59220,Faches-Thumesnil,592200000B4339,3.074819,50.585155
2017-1181821,2017-08-23,Vente en l'état futur d'achèvement,489000.0,,,83071,La Londe-les-Maures,83071000BL0075,6.238733,43.136918
2017-395108,2017-07-12,Vente,332000.0,AV DU GERS,31270.0,31203,Frouzins,31203000AC0362,1.311152,43.515384
2017-466766,2017-01-12,Vente,258000.0,CHE MAS DE BANAL,34190.0,34243,Saint-Bauzille-de-Putois,342430000E1762,3.742676,43.893787
2017-826366,2017-09-08,Vente,560911.56,LE CHEM DES PROUETTES,59282.0,59179,Douchy-les-Mines,591790000C0988,3.397609,50.294715
2017-718015,2017-12-02,Vente,145000.0,IMP DE L'ETANG,51120.0,51360,Le Meix-Saint-Epoing,513600000C0368,3.645881,48.691416
2017-978774,2017-01-12,Vente,96000.0,LES GRANGERS,71390.0,71404,Saint-Désert,714040000C0399,4.709781,46.758551
2017-1061516,2017-06-16,Vente,95000.0,RUE CHAMP DE COURSES,76190.0,76758,Yvetot,76758000AC0215,0.746602,49.619075
2017-68399,2017-12-29,Vente,150750.0,AV DE LA FLOTTE,6400.0,6029,Cannes,06029000CY0016,7.020202,43.560325
2017-423657,2017-10-27,Vente en l'état futur d'achèvement,262000.0,GASSIES,33140.0,33550,Villenave-d'Ornon,33550000AT0203,-0.528014,44.77655
2017-1319436,2017-06-16,Vente,263000.0,RUE DE CANDALE,93500.0,93055,Pantin,93055000AF0137,2.413593,48.887919
2017-1027192,2017-12-19,Vente,270000.0,SUR LA TOUR,74270.0,74086,Contamine-Sarzin,740860000A3218,5.977014,46.013186
2017-703521,2017-03-31,Vente,143000.0,LA CHAISERIE,50300.0,50025,Avranches,500255160A1030,-1.337033,48.665387
2017-233228,2017-09-20,Vente,110000.0,RUE DE VELARS,21370.0,21485,Plombières-lès-Dijon,21485000AN0145,4.968395,47.341387
2017-1278616,2017-03-30,Vente en l'état futur d'achèvement,490000.0,RUE CHARLES GOUNOD,91120.0,91477,Palaiseau,91477000BC0453,2.207133,48.707136
2017-676533,2017-12-21,Vente,80000.0,NICOLE OUEST,47190.0,47196,Nicole,471960000A1148,0.329467,44.328409
2017-1351907,2017-10-20,Vente,136000.0,RUE JEAN JUPILLAT,94320.0,94073,Thiais,940730000X0069,2.391592,48.76306
2017-302508,2017-02-17,Vente,211000.0,RTE DE LOUVIERS,27400.0,27697,Vironvay,27697000ZA0214,1.216339,49.206076
2017-967700,2017-06-15,Vente,137750.0,RUE DE LA PAIX,69400.0,69264,Villefranche-sur-Saône,69264000AL0046,4.715779,45.987312
2017-777058,2017-03-22,Vente,22401.0,RUE DU COMMERCE,58230.0,58205,Ouroux-en-Morvan,58205000BT0053,3.944136,47.186481
2017-743475,2017-11-09,Vente,112000.0,RUE ALEXANDRE 1ER,54130.0,54482,Saint-Max,54482000AB0400,6.199131,48.701634
2017-1424505,2017-06-07,Vente,230000.0,RUE GUTENBERG,75015.0,75115,Paris 15e Arrondissement,75115000FX0015,2.281504,48.84422
2017-1127076,2017-07-25,Vente,130000.0,LE CHAPEAU,79130.0,79190,Neuvy-Bouin,791900000E0536,-0.467816,46.67312
2017-302250,2017-12-08,Vente,128000.0,RUE DE LA BUISSONNIERE,27230.0,27252,Fontaine-la-Louvet,27252000ZL0081,0.453804,49.149818
2017-10846,2017-02-20,Vente,385400.0,AUX PLANCHES,1600.0,1427,Trévoux,01427000AB1024,4.757612,45.950322
2017-1097021,2017-12-18,Vente,386000.0,RUE MADEMOISELLE,78000.0,78646,Versailles,78646000AD0053,2.12929,48.809627
2017-359234,2017-08-31,Vente,252170.0,RUE SIMONE DE BEAUVOIR,30129.0,30211,Redessan,30211000AC0609,4.499917,43.827591
2017-1293943,2017-10-25,Vente en l'état futur d'achèvement,291185.0,AV DES GRESILLONS,92600.0,92004,Asnières-sur-Seine,92004000AZ0199,2.305973,48.915681
2017-370448,2017-07-07,Vente,100000.0,CHE MICHOUN,31500.0,31555,Toulouse,31555833AK0002,1.467416,43.625487
2017-554966,2017-08-03,Vente,90000.0,CHE DE FAYOLANT,38118.0,38365,Saint-Baudille-de-la-Tour,383650000A0317,5.323661,45.809936
2017-612060,2017-12-15,Vente,47000.0,AV DE LATTRE DE TASSIGNY,43300.0,43112,Langeac,43112000AH0144,3.493552,45.10546
2017-500900,2017-05-17,Vente,268500.0,LA MARE DU RHEU,35650.0,35240,Le Rheu,35240000ZE0735,-1.793027,48.096452
2017-677489,2017-06-23,Vente,162000.0,SABLES,47180.0,47233,Sainte-Bazeille,47233000AB0157,0.088822,44.550993
2017-1078969,2017-12-12,Vente,155000.0,RUE DE LA CLOCHE,77300.0,77186,Fontainebleau,77186000AI0027,2.70004,48.408373
2017-1142662,2017-11-21,Vente,93500.0,RTE DE TREBAS,81430.0,81010,Ambialet,810100000B0771,2.387422,43.942873
2017-980164,2017-05-31,Vente,111000.0,LE MEIX CADOLET,71350.0,71423,Saint-Gervais-en-Vallière,71423000ZO0122,4.951625,46.939137
2017-297372,2017-07-27,Vente,335000.0,RUE EDOUARD RUY,27200.0,27681,Vernon,27681000BK0620,1.476722,49.091642
2017-397127,2017-12-12,Vente,280000.0,RUE JOSEPH CUGNOT,31600.0,31395,Muret,31395000AO0067,1.340215,43.479266
2017-1279529,2017-06-30,Vente,177000.0,RUE LOUISE BRUNEAU,91120.0,91477,Palaiseau,91477000AE0001,2.242263,48.72178
2017-1328966,2017-07-03,Vente,140000.0,ALL HELENE BOUCHER,93270.0,93071,Sevran,93071000CH0038,2.5174,48.934465
2017-1008548,2017-12-05,Vente en l'état futur d'achèvement,259000.0,LES CHANCELLIERES,73800.0,73151,Porte-de-Savoie,73151118AK0071,6.042132,45.4982
2017-722523,2017-09-16,Vente,240240.0,LES NOUES,51500.0,51152,Chigny-les-Roses,511520000A0824,4.072911,49.160675
2017-1071700,2017-01-16,Vente,180000.0,RUE DU GEN DE GAULLE,77610.0,77336,Neufmoutiers-en-Brie,773360000C0166,2.830286,48.769038
2017-262365,2017-05-18,Vente,204976.0,TERRASSON,24800.0,24428,Saint-Jory-de-Chalais,24428000ZB0076,0.919605,45.511036
2017-667169,2017-03-31,Vente,260000.0,LES DESLANDES,45290.0,45036,Boismorand,450360000C0159,2.736918,47.763776
2017-1053334,2017-03-29,Vente,100000.0,RUE DE PRONY,76600.0,76351,Le Havre,76351000GF0059,0.128337,49.485581
2017-828209,2017-01-07,Vente,115000.0,SEN DES JARDINS,60590.0,60343,Lalande-en-Son,603430000A0288,1.780171,49.39114
2017-899233,2017-03-28,Vente,73100.0,JASTREGUY,64220.0,64218,Estérençuby,642180000B0023,-1.188659,43.10707
2017-774622,2017-03-01,Vente,57000.0,RUE DE LA GARE,56320.0,56057,Le Faouët,56057000AE0269,-3.495523,48.035609
2017-417812,2017-04-26,Vente,510000.0,RUE VILLEDIEU,33000.0,33063,Bordeaux,33063000DV0030,-0.577988,44.830905
2017-1040472,2017-02-21,Vente,71300.0,CRS CLEMENCEAU,76100.0,76540,Rouen,76540000XE0019,1.089116,49.434993
2017-917785,2017-06-15,Vente,144000.0,RUE FRANCOIS ARAGO,66000.0,66136,Perpignan,66136000AK0106,2.892051,42.696253
2017-799505,2017-11-27,Vente,240000.0,ALL THALES,59650.0,59009,Villeneuve-d'Ascq,59009000NL0059,3.139511,50.617968
2017-505571,2017-09-16,Vente,190000.0,RUE ANGELE VANNIER,35300.0,35115,Fougères,35115000AW0164,-1.20549,48.364307
2017-223037,2017-06-23,Vente,67000.0,LE BOURG,19220.0,19193,Saint-Cirgues-la-Loutre,19193000AB0170,2.097681,45.079752
2017-284252,2017-02-22,Vente,54000.0,LES BRUCLAS,26600.0,26110,Crozes-Hermitage,261100000A1194,4.841923,45.102159
2017-422128,2017-09-15,Vente,353000.0,AV DE MAGONTY,33600.0,33318,Pessac,33318000CE0075,-0.686032,44.800185
2017-1388619,2017-11-17,Vente,176500.0,LOT CAZIMIR A WILLIAM,97118.0,97125,Saint-François,97125000BH0520,-61.30186,16.246258
2017-1004241,2017-06-27,Vente en l'état futur d'achèvement,68206.8,RUE DU CHEVAL BLANC,73500.0,73157,Modane,731570000F2251,6.653554,45.17168
2017-492148,2017-06-16,Vente,67500.0,RUE EUGENE POTTIER,35000.0,35238,Rennes,35238000DM0489,-1.705168,48.104766
2017-304039,2017-11-10,Vente terrain à bâtir,256800.0,LES NOES DE LERY,27100.0,27701,Val-de-Reuil,27701000BX0095,1.21975,49.273575
2017-876598,2017-06-01,Vente,23591.4,CHAMP BERNARD,63210.0,63248,Nébouzat,63248000ZI0142,2.92575,45.708955
2017-364589,2017-01-23,Vente,72000.0,AV MAURICE BOURGES-MAUNOURY,31200.0,31555,Toulouse,31555831AT0208,1.45124,43.63293
2017-1370482,2017-12-20,Vente,125000.0,BD D'ERKRATH,95800.0,95127,Cergy,95127000EI0028,2.010431,49.050316
2017-14316,2017-01-03,Vente,116000.0,RUE DE GRASSE,2700.0,2738,Tergnier,02738825AC0111,3.279364,49.661561
2017-1073905,2017-08-25,Vente,372000.0,BARNY,77515.0,77400,Saint-Augustin,77400000ZP0766,3.025214,48.790169
2017-186406,2017-11-21,Vente,30000.0,LES BASSES LUNETTES,16480.0,16354,Sainte-Souline,16354000ZD0031,-0.018336,45.368116
2017-80760,2017-05-12,Vente,39000.0,LEYGA,7270.0,7085,Empurany,070850000B0571,4.613716,45.026771
2017-974613,2017-12-07,Vente,74000.0,RUE DU PATIS,70170.0,70167,Conflandey,70167000AC0149,6.046016,47.727305
2017-691120,2017-01-04,Vente,107000.0,RUE L M GRIGNON MONTFORT,49300.0,49099,Cholet,49099000BX0429,-0.883032,47.055076
2017-88197,2017-01-18,Vente,88517.0,FOUNTORBE,9120.0,9327,Ventenac,093270000A0108,1.73366,43.022379
2017-350059,2017-06-06,Vente,232000.0,RUE PILATRE DE ROZIER,30900.0,30189,Nîmes,30189000KP0192,4.318832,43.814239
2017-698193,2017-06-13,Vente,35810.0,LA PETITE VARENNE,49150.0,49018,Baugé-en-Anjou,49018372ZO0041,-0.104448,47.519554
2017-101919,2017-06-30,Vente,165000.0,LE VILLAGE,11600.0,11416,Villarzel-Cabardès,114160000A0177,2.459552,43.280103
2017-664101,2017-05-22,Vente,86000.0,RTE DE COURTENAY,45320.0,45136,Ervauville,45136000ZI0075,2.983723,48.086471
2017-638962,2017-05-29,Vente,187000.0,RUE ARISTIDE BERTREUX,44640.0,44120,Le Pellerin,44120000AA0105,-1.753237,47.20202
2017-310366,2017-12-21,Vente,52452.0,LES CLOS POUSSINS,28120.0,28091,Les Châtelliers-Notre-Dame,28091000ZE0032,1.206376,48.351301
2017-989638,2017-05-12,Vente,45000.0,RUE DES PALMIERS,72000.0,72181,Le Mans,72181000BD0156,0.200657,48.016885
2017-1013911,2017-10-20,Vente,137000.0,RUE DE GONRAT,73000.0,73031,Bassens,730310000B1828,5.94061,45.572889
2017-281861,2017-06-30,Vente,214900.0,RUE DES LILAS,25600.0,25614,Vieux-Charmont,25614000AE0178,6.84039,47.527952
2017-899964,2017-04-20,Vente,52000.0,PL DE LA REPUBLIQUE,64100.0,64102,Bayonne,64102000BI0214,-1.470887,43.495575
2017-337008,2017-08-26,Vente,165000.0,RUE DES LICHENS,29420.0,29210,Plouvorn,29210000AE0031,-4.025608,48.580068
2017-735575,2017-10-11,Vente,50000.0,LE MATRAS,53640.0,53051,Champéon,53051000ZM0023,-0.50591,48.333121
2017-484417,2017-05-23,Vente,50000.0,RUE DE LA TOISON D OR,34300.0,34003,Agde,34003000OK0010,3.510502,43.277787
2017-711009,2017-10-24,Vente,83165.0,RUE DES QUARANTAINES,50560.0,50058,Blainville-sur-Mer,50058000AV0469,-1.588046,49.065758
2017-422343,2017-09-20,Vente,166500.0,AV DES EYQUEMS,33700.0,33281,Mérignac,33281000CO0708,-0.616098,44.827281
2017-72699,2017-05-03,Vente,380000.0,CHE DES CAILLADES,6480.0,6044,La Colle-sur-Loup,06044000BB0030,,
2017-595908,2017-06-23,Vente,258850.0,LA FAYE,42660.0,42139,Marlhes,421390000B0310,4.410941,45.301432
2017-873688,2017-01-12,Vente,195000.0,LA JARRIGE,63160.0,63157,Fayet-le-Château,631570000D0363,3.392167,45.68673
2017-201142,2017-04-04,Vente,35800.0,LE BOURG,17840.0,17486,La Brée-les-Bains,174860000A2725,-1.350364,46.013945
2017-676146,2017-11-15,Vente,31000.0,COUZOULA,47360.0,47276,Saint-Sardos,472760000F0495,0.496381,44.329932
2017-1228338,2017-08-29,Vente,310000.0,RUE BOURBON,86100.0,86066,Châtellerault,86066000CV0115,0.544116,46.816802
2017-1121743,2017-07-27,Vente,193000.0,RUE DE SALBOEUF,79000.0,79308,Sciecq,79308000AE0036,-0.470474,46.371751
2017-1319141,2017-09-19,Vente,110000.0,RUE DU CPT SOYER,93310.0,93061,Le Pré-Saint-Gervais,930610000H0012,2.403843,48.882412
2017-546417,2017-10-03,Vente en l'état futur d'achèvement,156000.0,LE BOUTEY,38560.0,38071,Champ-sur-Drac,38071000AM0020,,
2017-863952,2017-07-07,Vente,30000.0,RUE DIDEROT,62100.0,62193,Calais,62193000AD0400,1.866276,50.953285
2017-1266987,2017-03-16,Vente,380300.0,RTE DE SAULX LES CHARTREUX,91160.0,91044,Ballainvilliers,91044000AH0001,2.280255,48.674964
2017-1030334,2017-06-07,Vente,365000.0,LES ROSIERES,74400.0,74056,Chamonix-Mont-Blanc,740560000C3581,6.880777,45.935302
2017-637709,2017-01-27,Vente,167000.0,LA RAFFINIERE,44640.0,44145,Rouans,441450000B2247,-1.839381,47.194158
2017-171767,2017-01-25,Vente,70000.0,LES FIEFFES,14250.0,14346,Juaye-Mondaye,14346000ZB0075,-0.723697,49.220902
2017-1236223,2017-10-05,Vente,95000.0,LE BOURG,87150.0,87054,Cussac,87054000AB0272,0.849112,45.706062
2017-26146,2017-06-19,Vente,107200.0,RUE DES PAQUERETTES,3200.0,3310,Vichy,03310000AO0109,3.443069,46.117854
2017-1045878,2017-12-29,Vente en l'état futur d'achèvement,185500.0,RUE ADRIENNE BOLLAND,76140.0,76498,Le Petit-Quevilly,76498000AR0588,1.066639,49.423318
2017-748610,2017-06-22,Vente,222000.0,RUE DE LA FONTAINE,54300.0,54588,Vitrimont,545880000V0102,6.441909,48.598284
2017-91730,2017-11-08,Vente,95700.0,PRAT DE LAS CRABOS,9190.0,9289,Lorp-Sentaraille,092890000A1503,1.118992,43.009881
2017-649718,2017-04-25,Vente,140000.0,AV SAINT GEORGES,44500.0,44055,La Baule-Escoublac,44055000BH0159,-2.356546,47.274273
2017-650013,2017-05-18,Vente,165000.0,AV LOUIS LAJARRIGE,44500.0,44055,La Baule-Escoublac,44055000BR0113,-2.370876,47.279782
2017-1044797,2017-10-25,Vente en l'état futur d'achèvement,326625.0,RUE DU CHAMP DES OISEAUX,76000.0,76540,Rouen,76540000CK0021,1.095199,49.450208
2017-301798,2017-08-24,Vente,185000.0,CHE DE LA BERGERIE,27410.0,27345,La Houssaye,273450000A0288,0.803968,48.999889
2017-980040,2017-05-24,Vente,115000.0,RTE DE CHAREAU,71510.0,71391,Saint-Bérain-sur-Dheune,713910000D0204,4.6049,46.818618
2017-773145,2017-07-10,Vente,22890.0,LE GRAND CHAMP,56500.0,56204,Saint-Allouestre,56204000ZM0123,-2.747566,47.892875
2017-526914,2017-08-30,Vente,395000.0,RUE DU BOIS LIVIERE,37540.0,37214,Saint-Cyr-sur-Loire,37214000BL0089,0.647366,47.407125
2017-1303189,2017-08-18,Vente,317000.0,AV SAINT PAUL,92370.0,92022,Chaville,92022000AK0097,2.187023,48.801586
2017-1248993,2017-04-13,Vente,128000.0,RUE ETIENNE DOLET,89000.0,89024,Auxerre,89024000AZ0294,3.578328,47.796896
2017-789207,2017-11-10,Vente en l'état futur d'achèvement,172880.0,RUE FAIDHERBE HELLEMMES,59260.0,59350,Lille,59350298AB1279,3.11489,50.633039
2017-1440720,2017-02-20,Vente,165000.0,VLA STENDHAL,75020.0,75120,Paris 20e Arrondissement,75120000CL0052,2.402343,48.862331
2017-952369,2017-09-25,Vente,170000.0,RUE HENRI MARECHAL,69800.0,69290,Saint-Priest,69290000CV0208,4.941667,45.694944
2017-23025,2017-09-14,Vente,249000.0,MONTBAZIN,2330.0,2223,Courboin,02223000ZL0079,3.519191,48.98441
2017-104155,2017-11-14,Vente,130000.0,LE VILLAGE,11610.0,11404,Ventenac-Cabardès,11404000AD0344,2.28587,43.264521
2017-261257,2017-02-08,Vente,190000.0,RUE DES BAINS,24750.0,24053,Boulazac Isle Manoire,24053000AA0165,0.741015,45.185093
2017-540017,2017-08-10,Vente,180000.0,RUE DU DOCTEUR CALMETTE,38000.0,38185,Grenoble,38185000IV0148,5.70615,45.181223
2017-421523,2017-09-01,Vente,205000.0,AV ARISTIDE BRIAND,33700.0,33281,Mérignac,33281000CP0311,-0.623404,44.82503
2017-799580,2017-11-30,Vente,210670.0,RUE FRANCOIS MERIAUX,59150.0,59650,Wattrelos,59650000CP0279,3.223743,50.698873
2017-772911,2017-06-16,Vente,82470.5,BANDE DE DOELLAN,56800.0,56032,Campénéac,56032000YK0006,-2.348603,47.956074
2017-231602,2017-06-27,Vente,299000.0,RUE LE JOLIVET,21000.0,21231,Dijon,21231000CM0167,5.059664,47.306752
2017-1116738,2017-07-19,Vente,231500.0,RES DU CLOS DE LA MOTTE,78760.0,78321,Jouars-Pontchartrain,783210000A0064,1.900542,48.807793
2017-1115898,2017-06-06,Vente,221970.0,CHE SAINTE MARIE,78940.0,78404,Millemont,784040000B0194,1.745793,48.809541
2017-1049667,2017-12-06,Vente,370000.0,RTE DE NEUFCHATEL,76230.0,76377,Isneauville,76377000AD0038,1.149427,49.495719
2017-86437,2017-10-20,Vente,160000.0,RUE D ANNELLES,8300.0,8452,Thugny-Trugny,08452000AE0189,4.422309,49.483421
2017-1196746,2017-10-09,Vente,160000.0,IMP DU PARLEMENT,84100.0,84087,Orange,84087000BV0179,4.809417,44.138035
2017-341157,2017-09-19,Vente,220000.0,FICARELLA,20167.0,2A103,Cuttoli-Corticchiato,2A1030000A3559,,
2017-753217,2017-04-07,Vente,132000.0,A POIVRE,55000.0,55568,Ville-sur-Saulx,55568000YC0013,5.060078,48.722634
2017-203690,2017-09-27,Echange,49000.0,LA GRATONNIERE,17550.0,17140,Dolus-d'Oléron,17140000CD0478,-1.276375,45.899967
2017-403837,2017-09-07,Vente,456000.0,TOUJET,32110.0,32094,Caupenne-d'Armagnac,32094000AT0028,-0.094038,43.783548
2017-980474,2017-06-23,Vente,50500.0,LA MOLLEPIERRE NORD,71150.0,71073,Chagny,71073000BK0397,4.749332,46.901867
2017-1063160,2017-01-26,Vente,325000.0,AV ANDRE MESSAGER,77680.0,77390,Roissy-en-Brie,773900000B0653,2.663391,48.783366
2017-235049,2017-12-13,Vente,330000.0,RUE ROBERT HOUDART,21121.0,21278,Fontaine-lès-Dijon,21278000BI0215,5.026927,47.336268
2017-1150299,2017-11-06,Vente,183000.0,RTE DES PIGEONNIERS,82300.0,82126,Monteils,821260000A1004,1.572202,44.186098
2017-356980,2017-04-26,Vente,160000.0,LE VILLAGE,30700.0,30337,Vallabrix,303370000B0212,4.479679,44.061235
2017-893201,2017-07-13,Vente,165000.0,RUE SAMONZET,64000.0,64445,Pau,64445000CP0560,-0.36811,43.298403
2017-1139674,2017-03-02,Vente en l'état futur d'achèvement,176112.0,RUE ALFRED MONESTIE,81000.0,81004,Albi,81004000AL0073,2.143272,43.935571
2017-1405516,2017-06-15,Vente,330000.0,RUE DAUPHINE,75006.0,75106,Paris 6e Arrondissement,75106000AC0100,2.339837,48.854928
2017-1134516,2017-06-12,Vente,27500.0,RUE DE LA CARRIERE,80132.0,80763,Le Titre,807630000A0269,1.794945,50.189483
2017-872900,2017-07-13,Vente,74000.0,LE HAMEAU D ORLENCOURT,62127.0,62580,Monchy-Breton,625800000C0269,2.426419,50.399771
2017-1190892,2017-01-18,Vente,165000.0,LES COSTIERES,84800.0,84054,L'Isle-sur-la-Sorgue,84054000AD0628,5.061281,43.939222
2017-1098609,2017-03-15,Vente,384700.0,ALL CLAUDE MONET,78160.0,78372,Marly-le-Roi,78372000AD0382,2.091412,48.876903
2017-164951,2017-08-30,Vente,179000.0,RUE DU MILIEU,14200.0,14327,Hérouville-Saint-Clair,14327000CD0116,-0.323684,49.197151
2017-774170,2017-12-29,Vente,160000.0,LE HALLIGUEN,56420.0,56172,Plumelec,56172000YK0196,-2.663995,47.83903
2017-1158889,2017-09-15,Vente,248400.0,AV DE SAINT LAMBERT,83600.0,83061,Fréjus,83061000AX0462,6.749533,43.440321
2017-880740,2017-11-28,Vente,92000.0,RUE DU GRAND CHAMP,63110.0,63032,Beaumont,63032000BT0009,3.085888,45.752637
2017-1262906,2017-08-10,Vente,405000.0,SQ JOSEPH HAYDN,91450.0,91600,Soisy-sur-Seine,91600000AC0309,2.461985,48.651367
2017-333942,2017-08-16,Vente,130000.0,KERFEUNTEUN,29590.0,29302,Pont-de-Buis-lès-Quimerch,29302000ZT0031,-4.099077,48.276123
2017-1228821,2017-11-28,Vente,60000.0,RUE D'ANTRAN,86100.0,86066,Châtellerault,86066000DO0180,0.536779,46.817623
2017-1241441,2017-06-29,Vente,211600.0,LOT LE CLOS DES SARRAZINS,88390.0,88483,Uxegney,88483000AE0136,6.365513,48.184059
2017-567795,2017-10-03,Vente,169880.0,CHANCOUTIER,39700.0,39513,Sermange,39513000ZB0015,5.643809,47.203856
2017-1315627,2017-03-22,Vente,248000.0,RUE DES GRILLES,93500.0,93055,Pantin,93055000AL0036,2.404316,48.890159
2017-1277023,2017-09-14,Vente,410000.0,LE VILLAGE,91650.0,91105,Breuillet,91105000AR0119,2.170623,48.565821
2017-214980,2017-11-03,Vente,90000.0,RUE DE LA ROCHELLE,17330.0,17043,Bernay-Saint-Martin,17043000ZX0060,-0.642161,46.05544
2017-356362,2017-03-09,Vente,160000.0,TAMARISSIERE,30127.0,30034,Bellegarde,300340000D2104,4.497689,43.72835
2017-777476,2017-05-18,Vente,140000.0,RUE CLAUDE PERRIN,58000.0,58194,Nevers,58194000BX0153,3.145988,46.982679
2017-649961,2017-05-29,Vente,178000.0,RUE DE LA MAIRIE,44420.0,44211,La Turballe,44211000AD0748,-2.505966,47.34524
2017-1440012,2017-12-19,Vente,404500.0,RUE VERON,75018.0,75118,Paris 18e Arrondissement,75118000AR0132,2.3363,48.884375
2017-18882,2017-11-17,Vente,24000.0,LA RUE HENRI MARTIN,2230.0,2334,Fresnoy-le-Grand,02334000AC0094,3.412756,49.949912
2017-236722,2017-07-21,Vente,51688.0,PEUTE BRANCHE,21310.0,21135,Champagne-sur-Vingeanne,21135000ZD0014,5.424798,47.435478
2017-1328305,2017-04-06,Vente en l'état futur d'achèvement,176000.0,AV DU QUATORZE JUILLET,93600.0,93005,Aulnay-sous-Bois,93005000BG0100,2.493958,48.929086
2017-199225,2017-12-28,Vente en l'état futur d'achèvement,135000.0,LES TREILLES,17440.0,17028,Aytré,17028000AH0735,-1.113956,46.139827
2017-855211,2017-07-07,Vente,137000.0,BD DE FLANDRE,62400.0,62119,Béthune,62119000AX0654,2.625638,50.516337
2017-244441,2017-07-20,Vente,29500.0,RUE DU BOIS JEGU ST AARON,22400.0,22093,Lamballe-Armor,22093270ZV0121,-2.494542,48.505768
2017-874215,2017-02-08,Vente,335000.0,RUE DES ECOLES,63960.0,63455,Veyre-Monton,63455000ZN0353,3.163665,45.674335
2017-821257,2017-06-08,Vente,110000.0,RUE JULES FERRY,59129.0,59037,Avesnes-les-Aubert,590370000B0390,3.381488,50.198187
2017-9489,2017-11-14,Vente,212000.0,MAIL DU NEUTRINO,1280.0,1313,Prévessin-Moëns,01313000AP0075,6.071883,46.250466
2017-1257716,2017-10-21,Vente,55000.0,LE VILLAGE,90330.0,90023,Chaux,90023000AC0207,6.834502,47.711528
2017-1066297,2017-06-19,Vente,285900.0,RUE DU CHENE PRIEUR,77127.0,77251,Lieusaint,77251000ZL0415,2.54863,48.636368
2017-1239853,2017-02-17,Vente,45000.0,RUE LT MULOT,88500.0,88304,Mirecourt,88304000AI0195,6.128975,48.291947
2017-807909,2017-04-19,Vente,45000.0,RUE DE DUNKERQUE,59630.0,59094,Bourbourg,590940000A0188,2.19976,50.950777
2017-475354,2017-12-05,Vente,45000.0,RUE DE LIEGE,34590.0,34151,Marsillargues,341510000B0074,4.177103,43.666884
2017-469898,2017-06-07,Vente,88000.0,RES LE PONANT,34200.0,34301,Sète,34301000BS0346,3.662494,43.402332
2017-96326,2017-11-24,Vente,250000.0,LE MARAUD,10440.0,10321,La Rivière-de-Corps,103210000C1705,4.020302,48.284552
2017-229887,2017-03-29,Vente,21000.0,AV MAL LYAUTEY,21000.0,21231,Dijon,21231000BK0050,5.05775,47.327521
2017-696660,2017-09-20,Vente,34378.21,LA BUSSARDIERE,49650.0,49002,Allonnes,490020000A0127,0.039846,47.337005
2017-224938,2017-01-31,Vente,150000.0,RUE LOUIS NUSSAS,19100.0,19031,Brive-la-Gaillarde,19031000BS0031,1.531045,45.170978
2017-389788,2017-03-16,Vente,320850.0,AV LOUIS COUDER,31670.0,31254,Labège,31254000AI0031,1.53262,43.544003
2017-1275447,2017-04-28,Vente,205000.0,RUE DE LA MADELEINE,91660.0,91390,Le Mérévillois,91390000AK0075,2.085832,48.317809
2017-1357470,2017-11-10,Vente,117000.0,AV CHARLES DE GAULLE,94470.0,94004,Boissy-Saint-Léger,94004000AB0196,2.50061,48.757128
2017-1158248,2017-08-07,Vente,254000.0,MTE DE LA COTTE,83720.0,83141,Trans-en-Provence,83141000AM0170,6.482018,43.502422
2017-776429,2017-12-27,Vente,90300.0,RUE DES CAMELIAS,56500.0,56144,Évellys,56144000AA0019,-2.836893,47.988496
2017-450452,2017-07-27,Vente,79000.0,EURONAT CENTRE DE LOISIRS,33590.0,33193,Grayan-et-l'Hôpital,33193000AA0002,-1.148546,45.417461
2017-212416,2017-03-31,Vente,165000.0,LA CAMELOTTE,17360.0,17366,Saint-Martin-de-Coux,17366000AN0210,-0.125975,45.141916
2017-961325,2017-03-02,Vente,241000.0,RUE DE VERDUN,69290.0,69069,Craponne,69069000BB0347,4.713368,45.745302
2017-903795,2017-10-19,Vente,88675.0,AU VILLAGE,64470.0,64404,Montory,644040000E0152,-0.818537,43.095998
2017-64302,2017-04-28,Vente,550000.0,AV PRINCE DE GALLES,6400.0,6029,Cannes,06029000DH0259,7.0278,43.559868
2017-323702,2017-01-18,Vente,108000.0,RUE DES ONZE MARTYRS,29200.0,29019,Brest,29019000IY0025,-4.484156,48.391004
2017-45494,2017-11-02,Vente,294000.0,AV MARECHAL FOCH,6000.0,6088,Nice,06088000LB0139,7.271712,43.704169
2017-574023,2017-08-11,Vente,362050.0,HE,40170.0,40182,Mézos,40182000AV0606,-1.124294,44.07767
2017-1064524,2017-04-04,Vente,110000.0,RES DE LA BRETAGNE,77190.0,77152,Dammarie-les-Lys,77152000AR0558,2.63512,48.519983
2017-1182164,2017-09-01,Vente en l'état futur d'achèvement,262200.0,BD DE LA LITORNE,83270.0,83112,Saint-Cyr-sur-Mer,83112000DI0319,5.715398,43.187544
2017-444914,2017-06-08,Vente,189916.5,LE VIVEY EST,33890.0,33186,Gensac,33186000AC0272,0.07924,44.803393
2017-1167084,2017-10-24,Vente,480000.0,AV DE PERAFABRE,83630.0,83122,Les Salles-sur-Verdon,831220000A1847,6.215445,43.774494
2017-606997,2017-02-24,Vente,45000.0,CHE DU BON TEMPS,43110.0,43012,Aurec-sur-Loire,43012000AM0444,4.193745,45.367079
2017-934386,2017-09-26,Vente,145000.0,RUE HECTOR BERLIOZ,69009.0,69389,Lyon 9e Arrondissement,69389000AH0139,4.823186,45.800164
2017-92740,2017-01-11,Vente,54900.0,RUE DU PETIT SABOT,10150.0,10115,Creney-près-Troyes,10115000AI0347,4.129357,48.327705
2017-9058,2017-11-10,Vente,100000.0,LE PUBLE,1500.0,1004,Ambérieu-en-Bugey,01004000AX1036,5.361858,45.968516
2017-38484,2017-10-02,Vente,109661.0,PELINCHE,5600.0,5119,Risoul,051190000C1601,6.629189,44.622276
2017-1107325,2017-06-26,Vente,77000.0,AV PAUL RAOULT,78130.0,78440,Les Mureaux,78440000AO0615,1.915146,48.994933
2017-1338180,2017-10-19,Vente,437000.0,AV PDT SALVADOR ALLENDE,93100.0,93048,Montreuil,930480000K0177,2.459732,48.8728
2017-1059388,2017-01-21,Vente,145000.0,FOND DE BULLY,76270.0,76147,Bully,76147000AC0196,1.368984,49.730221
2017-242928,2017-04-22,Vente en l'état futur d'achèvement,393500.0,RUE DES GOELETTES,22500.0,22162,Paimpol,22162000AH0464,-3.042663,48.779098
2017-167071,2017-12-28,Vente en l'état futur d'achèvement,134100.0,BD DE L ESPERANCE,14123.0,14181,Cormelles-le-Royal,14181000AK0193,-0.326559,49.1555
2017-302616,2017-03-14,Vente,135000.0,LE VEAUBARD,27370.0,27700,Vraiville,27700000ZA0093,1.034589,49.225687
2017-658363,2017-09-15,Vente,253000.0,RUE ST MARCEAU,45100.0,45234,Orléans,45234000CW0037,1.905901,47.892292
2017-843638,2017-10-23,Vente,89100.0,LA CHABOSSIERE,61320.0,61420,Sainte-Marie-la-Robert,61420000ZC0235,-0.14366,48.624606
2017-467883,2017-03-03,Vente,175000.0,RUE DE LA TRAMONTANE,34190.0,34111,Ganges,34111000AD0753,3.718018,43.940719
2017-112213,2017-04-03,Vente,131000.0,RUE DE PARAIRE,12000.0,12202,Rodez,12202000AH0434,2.565727,44.349726
2017-1015593,2017-01-23,Vente,205000.0,CHE DU MOULIN,74330.0,74026,La Balme-de-Sillingy,740260000C1116,6.045067,45.9636
2017-544051,2017-04-24,Vente,173000.0,CITE DE PRUNEY,38420.0,38538,Le Versoud,38538000AB0118,5.876328,45.225733
2017-286172,2017-06-01,Vente,105000.0,RUE DES DROITS DE L HOMME,26400.0,26011,Aouste-sur-Sye,26011000AD0314,5.057608,44.715751
2017-86748,2017-02-07,Vente,100000.0,RUE DE L HORLOGE,8200.0,8409,Sedan,08409000BM0070,4.947397,49.701399
2017-876110,2017-05-02,Vente,76000.0,AV ALBERT ET ELISABETH,63000.0,63113,Clermont-Ferrand,63113000HV0075,3.095057,45.779417
2017-1066715,2017-07-02,Vente,95000.0,AV DU GENERAL PATTON,77000.0,77288,Melun,77288000AE0115,2.650119,48.546002
2017-1278351,2017-02-15,Vente,215000.0,IMP DE CERNAY,91470.0,91338,Limours,91338000AP0276,2.07094,48.649625
2017-1152510,2017-09-21,Vente,90500.0,AV DU GENERAL DE GAULLE,82100.0,82033,Castelsarrasin,82033000DE0419,1.106017,44.03665
2017-1183503,2017-10-27,Vente,450000.0,AV DES LAVANDES,83150.0,83009,Bandol,83009000AD0304,5.740415,43.142982
2017-151943,2017-03-10,Vente,400000.0,GATTE,13130.0,13014,Berre-l'Étang,13014000CY0166,5.187065,43.524059
2017-1158113,2017-08-09,Vente,136600.0,RTE NATIONALE 7,83490.0,83086,Le Muy,83086000AP0070,6.56225,43.471109
2017-969996,2017-11-27,Vente,103000.0,LE CHARDON,69460.0,69257,Vaux-en-Beaujolais,69257000AE0173,4.605152,46.041994
2017-11672,2017-05-18,Vente,147600.0,CHE DE THIL,1700.0,1376,Saint-Maurice-de-Beynost,01376000AH0035,4.983496,45.825756
2017-1185459,2017-02-27,Vente,321100.0,CHE FELIX FRIZET,84200.0,84031,Carpentras,84031000BZ0234,5.058126,44.048625
2017-469792,2017-05-23,Vente,125000.0,RUE DES CAPUCINES,34200.0,34301,Sète,34301000BE0404,3.677775,43.410984
2017-1390476,2017-07-28,Vente,130000.0,FREGATE EST,97240.0,97210,Le François,97210000AK0946,-60.873139,14.603254
2017-1293516,2017-10-18,Vente,223500.0,RUE BOURDARIE LEFURE,92600.0,92004,Asnières-sur-Seine,920040000N0041,2.281109,48.919316
2017-312330,2017-04-29,Vente,80000.0,RUE DAUPHINE,28410.0,28001,Abondant,280010000F1525,1.44347,48.787146
2017-1103324,2017-11-24,Vente en l'état futur d'achèvement,138000.0,,,78490,Plaisir,78490000AI0005,1.941278,48.829744
2017-160249,2017-12-14,Vente,333000.0,CD 81 F RTE DE TARASCON,13150.0,13017,Boulbon,130170000C1554,4.683767,43.857582
2017-675505,2017-08-17,Vente,67000.0,VALENDE,47270.0,47260,Saint-Maurin,472600000G0293,0.900352,44.231194
2017-789776,2017-12-18,Vente,147900.0,RUE SAINT ANDRE,59800.0,59350,Lille,59350000HI0200,3.056876,50.644732
2017-931170,2017-05-04,Vente,251000.0,RUE PIERRE BRUNIER,69300.0,69034,Caluire-et-Cuire,69034000BI0226,4.831301,45.788052
2017-1429097,2017-07-04,Vente,272000.0,RUE CHALGRIN,75016.0,75116,Paris 16e Arrondissement,75116000FA0069,2.288279,48.874448
2017-284011,2017-02-13,Vente,507000.0,TERSANNE,26390.0,26349,Tersanne,263490000A0451,5.011533,45.225158
2017-624917,2017-12-28,Vente en l'état futur d'achèvement,186000.0,,,44109,Nantes,44109000WA0245,-1.516176,47.261339
2017-1268499,2017-06-26,Vente,90000.0,AV JEAN JAURES,91200.0,91027,Athis-Mons,910270000R1073,2.381483,48.69339
2017-929862,2017-02-13,Vente,139020.0,RUE PIERRE BRUNIER,69300.0,69034,Caluire-et-Cuire,69034000BH0115,4.827455,45.785678
2017-978482,2017-12-11,Vente,120000.0,RTE DE CHALON,71460.0,71145,Cormatin,71145000AB0179,4.685541,46.548146
2017-1126239,2017-01-11,Vente,150000.0,LA COMMUNAUTE,79240.0,79286,Saint-Paul-en-Gâtine,79286000AD0088,-0.626281,46.654776
2017-857928,2017-03-17,Vente en l'état futur d'achèvement,150000.0,,,62498,Lens,62498000AC0356,2.824732,50.428495
2017-632265,2017-07-20,Vente,202000.0,CHE DU DOUCET,44700.0,44114,Orvault,44114000CC0210,-1.633992,47.277439
2017-302117,2017-11-24,Vente,230000.0,RUE DU RAVIN,27300.0,27667,Valailles,27667000ZH0072,0.62392,49.121257
2017-657524,2017-07-20,Vente en l'état futur d'achèvement,187000.0,RUE JONATHAN RODRIGUEZ,45140.0,45169,Ingré,45169000AW1058,1.825975,47.918391
2017-425798,2017-12-27,Vente en l'état futur d'achèvement,230500.0,AV BON AIR,33700.0,33281,Mérignac,33281000DP0579,-0.650481,44.81916
2017-104530,2017-12-07,Vente,77000.0,AV ARNAUT VIDAL,11400.0,11076,Castelnaudary,11076000AL0450,1.949084,43.313459
2017-1092548,2017-02-24,Vente,239400.0,PL DE WICKLOW,78180.0,78423,Montigny-le-Bretonneux,78423000AC0142,2.042916,48.78838
2017-400169,2017-03-27,Vente,345000.0,CAUBINOT,32350.0,32301,Ordan-Larroque,323010000D0336,0.487087,43.689513
2017-934150,2017-09-13,Vente,128500.0,RUE TARENTAISE,69300.0,69034,Caluire-et-Cuire,69034000BH0237,4.823869,45.784954
2017-162670,2017-05-09,Vente,58500.0,PORT DE L EUROPE,14000.0,14118,Caen,14118000HW0046,-0.378736,49.201403
2017-424682,2017-11-22,Vente en l'état futur d'achèvement,249415.0,RUE DURCY,33130.0,33039,Bègles,33039000AT0572,-0.543343,44.799308
2017-602690,2017-01-25,Vente,130000.0,LA CROIX DES CROS,42750.0,42141,Mars,421410000A1005,4.246497,46.166355
2017-1110071,2017-11-06,Vente,476654.0,RUE DU PRESIDENT WILSON,78230.0,78481,Le Pecq,78481000AD0074,2.111877,48.89523
2017-973532,2017-05-16,Vente,160000.0,LE VILLAGE,70170.0,70146,Chaux-lès-Port,701460000A1540,6.03575,47.715176
2017-1128621,2017-03-21,Vente,82280.0,CAMON,80450.0,80164,Camon,80164000AI0948,2.349866,49.88758
2017-661821,2017-07-04,Vente,164710.0,RTE DE LA BORDE,45310.0,45055,Bricy,45055000ZH0054,1.774727,48.003118
2017-464562,2017-11-27,Vente,325000.0,RUE SAINT GUILHEM,34000.0,34172,Montpellier,34172000HV0334,3.873408,43.608614
2017-1260285,2017-04-19,Vente,226000.0,RUE DU ROLE,91800.0,91114,Brunoy,91114000AX0293,2.514921,48.701454
2017-596729,2017-09-18,Vente,73000.0,RUE DENFERT ROCHEREAU,42700.0,42095,Firminy,42095000AH0223,4.290591,45.390361
2017-558003,2017-04-05,Vente,65000.0,RTE DES ALPES,38260.0,38069,Champier,38069000AB0491,5.291044,45.456428
2017-201099,2017-04-07,Vente,185000.0,RUE DE LA LIBERATION,17650.0,17323,Saint-Denis-d'Oléron,17323000AE0352,-1.377164,46.033229
2017-1186788,2017-05-16,Vente,136000.0,AV ANSELME MATHIEU,84810.0,84004,Aubignan,84004000AD0423,5.025314,44.105687
2017-1346229,2017-02-02,Vente,300000.0,RUE PAUL CEZANNE,94320.0,94073,Thiais,940730000J0725,2.390443,48.769018
2017-696024,2017-05-30,Vente,35000.0,LES PETITS CHAMPS,49730.0,49361,Varennes-sur-Loire,49361000ZL0299,0.073799,47.228112
2017-552320,2017-01-12,Vente,90000.0,RUE FRANCOIS PERRIN,38510.0,38261,Morestel,38261000AE0094,5.466651,45.678728
2017-553618,2017-04-27,Vente,222600.0,IMP DES MARCHES,38230.0,38507,Tignieu-Jameyzieu,38507000AN0454,5.175929,45.734945
2017-636828,2017-12-11,Vente,138800.0,LA FONDERIE,44140.0,44142,Remouillé,44142000YA0046,-1.404799,47.022151
2017-1012242,2017-06-26,Vente,80000.0,RUE FORVILLE,73330.0,73204,Le Pont-de-Beauvoisin,732040000A1133,5.67497,45.5339
2017-417405,2017-04-10,Vente en l'état futur d'achèvement,182000.0,RUE DES JACINTHES,33700.0,33281,Mérignac,33281000BZ0173,-0.640169,44.837345
2017-873683,2017-01-24,Vente,355000.0,RUE MICHALIAS,63000.0,63113,Clermont-Ferrand,63113000HT0058,3.09486,45.77411
2017-1338556,2017-12-08,Vente,204000.0,RUE EVANGELISTA TORRICELLI,93110.0,93064,Rosny-sous-Bois,930640000E0098,2.490557,48.882486
2017-1180297,2017-06-02,Vente,235000.0,RUE DE LA REPUBLIQUE,83210.0,83130,Solliès-Pont,83130000AT0240,6.038986,43.188331
2017-684451,2017-05-15,Vente,260000.0,RUE DU VIEUX BOURG,49320.0,49167,Les Garennes sur Loire,49167290AE0252,-0.445763,47.398778
2017-4526,2017-03-06,Vente,130000.0,BUGES,1230.0,1384,Saint-Rambert-en-Bugey,01384000AL0130,5.438815,45.959507
2017-49416,2017-06-30,Vente,180000.0,RUE FREDERIC PASSY,6000.0,6088,Nice,06088000KX0274,7.251561,43.699333
2017-694575,2017-11-02,Vente,45000.0,LA GRANDE OUCHE,49230.0,49301,Sèvremoine,493012850A0009,-1.130408,47.146017
2017-888973,2017-06-22,Vente,316900.0,RUE DE LA PLACE D ESPAGNE,63500.0,63178,Issoire,63178000AI0166,3.246597,45.545629
2017-393717,2017-04-01,Vente,240000.0,LE VILLAGE,31190.0,31330,Mauressac,313300000A0222,1.434586,43.323903
2017-447610,2017-12-07,Vente,255000.0,IMP LA CAVE,33390.0,33058,Blaye,33058000AN0233,-0.653883,45.124225
2017-142601,2017-03-07,Vente,100000.0,CHE DE GADIE,13109.0,13107,Simiane-Collongue,13107000AV0144,5.443943,43.434122
2017-1217915,2017-07-21,Vente,133150.0,BD DES DUNES,85690.0,85164,Notre-Dame-de-Monts,85164000AO0267,-2.143978,46.832318
2017-539900,2017-07-25,Vente,118000.0,AV DE L INDUSTRIE,38130.0,38151,Échirolles,38151000AP0016,5.714384,45.135899
2017-1280894,2017-10-09,Vente,334170.0,LE CLOS MADAME,91470.0,91338,Limours,91338000AI0353,2.062512,48.643002
2017-283987,2017-02-25,Vente,160000.0,LOT LES MASSEROLLES,26120.0,26206,Montmeyran,26206000ZT0060,4.97491,44.831242
2017-614306,2017-02-22,Vente,179470.0,RUE BABONEAU,44100.0,44109,Nantes,44109000HW0022,-1.576496,47.207941
2017-805680,2017-10-25,Vente en l'état futur d'achèvement,164000.0,AU BAS TROU,59237.0,59611,Verlinghem,596110000A1531,2.993747,50.682972
2017-575153,2017-11-02,Vente,90000.0,RTE DE MIMIZAN,40170.0,40043,Bias,40043000AT0067,-1.215856,44.149907
2017-2534,2017-09-13,Vente,164500.0,CHE DE CHAZELLE,1340.0,1387,Saint-Sulpice,013870000A0766,5.045207,46.320123
2017-1416737,2017-11-27,Vente,462000.0,CRS DE VINCENNES,75012.0,75112,Paris 12e Arrondissement,75112000AI0042,2.409046,48.846736
2017-744065,2017-12-11,Vente,405000.0,RUE NICOLAS GAUVIN,54180.0,54257,Heillecourt,54257000AC0993,6.194127,48.655646
2017-1105520,2017-03-29,Vente,300000.0,RUE DES MARAIS,78570.0,78138,Chanteloup-les-Vignes,78138000AN0702,2.024966,48.979599
2017-216861,2017-06-07,Vente,84000.0,RUE DE LAZENAY,18000.0,18033,Bourges,18033000DM0115,2.399183,47.064153
2017-638300,2017-03-24,Vente,250000.0,RUE DE BERNIER,44770.0,44126,La Plaine-sur-Mer,44126000AN0592,-2.18186,47.150134
2017-1322239,2017-03-16,Vente,500000.0,BD FOCH,93800.0,93031,Épinay-sur-Seine,93031000AK0121,2.329459,48.949176
2017-68991,2017-02-03,Vente terrain à bâtir,400000.0,CHE DES TERRES BLANCHES,6330.0,6105,Roquefort-les-Pins,06105000BM0155,7.069465,43.671069
2017-828303,2017-01-27,Vente,87750.0,CHEMIN D ENFER,60120.0,60353,Lavacquerie,60353000ZD0013,2.111751,49.687367
2017-265637,2017-03-13,Vente,217000.0,NEPLE SUD,24700.0,24415,Saint-Géraud-de-Corps,24415000AM0086,0.241812,44.951042
2017-353089,2017-10-12,Vente en l'état futur d'achèvement,149500.0,RUE DE LA BORELLE,30660.0,30123,Gallargues-le-Montueux,30123000AK0379,4.175129,43.718495
2017-109867,2017-09-18,Vente,129000.0,RUE DU FAUBOURG,11100.0,11255,Montredon-des-Corbières,11255000AB0124,2.925766,43.191911
2017-1431558,2017-01-20,Vente,203000.0,RUE DAUTANCOURT,75017.0,75117,Paris 17e Arrondissement,75117000DL0104,2.323404,48.88913
2017-225401,2017-03-21,Vente,102000.0,LE BIGEARDEL,19410.0,19162,Perpezac-le-Noir,191620000B0935,1.578847,45.331568
2017-1024163,2017-09-29,Vente,281100.0,AV DE CHAMP FLEURI,74600.0,74010,Annecy,74010268AP0013,6.100099,45.888067
2017-514764,2017-03-06,Vente,110000.0,LA MAIRIE,35450.0,35347,Val-d'Izé,353470000G0870,-1.302923,48.166898
2017-764058,2017-02-03,Vente,145000.0,KERDUEL,56240.0,56166,Plouay,56166000YE0070,-3.284647,47.937758
2017-1061158,2017-04-19,Vente,60000.0,SEN DES LONDES,76640.0,76258,Terres-de-Caux,76258000AE0375,0.590624,49.654503
2017-1038944,2017-11-22,Vente,45000.0,RTE DES FREINETS,74390.0,74063,Châtel,740630000A3816,6.831301,46.257851
2017-99403,2017-01-06,Vente,125000.0,PL DE LA VIERGE,11170.0,11288,Pezens,11288000AO0087,2.264802,43.255659
2017-316669,2017-05-31,Vente,35000.0,RUE DE BIR HAKEIM,29000.0,29232,Quimper,29232000AC0566,-4.096132,48.008341
2017-376902,2017-12-27,Vente,223000.0,CHE DE LA TERRASSE,31500.0,31555,Toulouse,31555836AI0026,1.490953,43.579608
2017-718426,2017-01-12,Vente en l'état futur d'achèvement,262000.0,,,51454,Reims,51454000IO0442,4.009254,49.250608
2017-1210511,2017-05-05,Vente,189500.0,RUE DES FLEURY,85360.0,85294,La Tranche-sur-Mer,85294000AL1154,-1.443357,46.342765
2017-16598,2017-10-20,Vente,58000.0,RUE DES CHAMPS DE LA CROIX,2000.0,2755,Urcel,02755000ZC0092,3.559669,49.495856
2017-1280483,2017-09-05,Vente,238000.0,RES GUILLAUME DE VOISIN,91190.0,91272,Gif-sur-Yvette,91272000AH0185,2.112944,48.686608
2017-251991,2017-10-14,Vente,118000.0,POUL VINGLIN,22720.0,22189,Plésidy,22189000ZK0042,-3.117817,48.448688
2017-349258,2017-04-25,Vente en l'état futur d'achèvement,220000.0,RUE DE LA BORELLE,30660.0,30123,Gallargues-le-Montueux,30123000AK0379,4.175129,43.718495
2017-421988,2017-09-05,Vente en l'état futur d'achèvement,171000.0,RTE DE CANEJAN,33170.0,33192,Gradignan,33192000BX0288,-0.640459,44.764355
2017-777016,2017-02-25,Vente,106664.92,CHETIFS CHAMPS,58290.0,58301,Vandenesse,58301000AA0064,3.764326,46.918155
2017-1047224,2017-05-15,Vente,196750.0,RTE DU VAL D ISNEAUVILLE,76160.0,76273,Fontaine-sous-Préaux,76273000AA0019,1.163928,49.487743
2017-424851,2017-12-06,Vente en l'état futur d'achèvement,253000.0,RUE DE LA GARENNE,33600.0,33318,Pessac,33318000KI0112,-0.653335,44.792792
2017-1201956,2017-08-31,Vente,42613.51,LE BOURG,85500.0,85144,Mesnard-la-Barotière,851440000A0024,-1.099125,46.861096
2017-1330252,2017-10-13,Vente,192000.0,RUE DE TOULOUSE,93410.0,93074,Vaujours,930740000B0005,2.583411,48.937285
2017-256876,2017-12-29,Vente,86000.0,LA NOE,22230.0,22309,Saint-Launeuc,22309000ZB0099,-2.381923,48.236096
2017-521080,2017-02-08,Vente,25600.0,RHODES,36170.0,36134,Mouhet,361340000D2007,1.423927,46.352402
2017-735547,2017-10-09,Vente,26500.0,LE PRE HOCHE,53500.0,53155,Montenay,531550000A0520,-0.873386,48.314124
2017-321656,2017-06-16,Vente,109000.0,GULVAIN,29510.0,29048,Edern,29048000YH0024,-3.916442,48.10263
2017-504923,2017-05-20,Vente,71000.0,RTE DE LA CHAPELLE JANSON,35300.0,35115,Fougères,35115000BD0946,-1.177153,48.354385
2017-263345,2017-06-23,Vente,205000.0,LES COURSAUX,24300.0,24016,Augignac,240160000A0663,0.7,45.602254
2017-246272,2017-11-21,Vente,259000.0,RUE DES CYGNES,22360.0,22106,Langueux,22106000AD0174,-2.73169,48.501296
2017-1070679,2017-12-29,Vente en l'état futur d'achèvement,234900.0,CHE DE LA PLANCHETTE,77170.0,77053,Brie-Comte-Robert,77053000AX0507,2.600073,48.690069
2017-1070509,2017-12-20,Vente,110000.0,PLAINE DE MONTAIGU,77000.0,77288,Melun,77288000AC0178,2.658568,48.554076
2017-289399,2017-10-09,Vente,335000.0,RUE ALFRED DE MUSSET,26100.0,26281,Romans-sur-Isère,26281000BP0387,5.077026,45.042125
2017-117893,2017-07-06,Vente,235000.0,LE GRES BAS,12270.0,12167,Najac,121670000O0238,1.937519,44.185579
2017-835255,2017-03-31,Vente,155000.0,BD DE LA GARE,60190.0,60531,Remy,605310000C1125,,
2017-207422,2017-12-18,Vente,80198.58,VALLEE DE BOISSE,17700.0,17394,Saint-Saturnin-du-Bois,173940000E0925,-0.667323,46.124928
2017-495123,2017-09-08,Vente,127000.0,RUE VICTOR SCHOELCHER,35200.0,35238,Rennes,35238000KV0505,-1.638018,48.090711
2017-1210434,2017-04-27,Vente,120000.0,LE PRE CANTEAU,85190.0,85016,Beaulieu-sous-la-Roche,850160000A1065,-1.612501,46.701443
2017-1300617,2017-03-21,Vente,208000.0,RUE PIERRE WACQUANT,92190.0,92048,Meudon,92048000AB0185,2.228301,48.820074
2017-485759,2017-08-29,Vente,60300.0,RUE SARRET DE COUSSERGUES,34300.0,34003,Agde,34003000NZ0012,3.502806,43.285948
2017-366111,2017-03-17,Vente,114000.0,BD DE STRASBOURG,31000.0,31555,Toulouse,31555824AB0086,1.445479,43.608358
2017-876565,2017-05-19,Vente,177020.0,CHE DU PREGNOUX,63150.0,63047,La Bourboule,63047000AL0419,2.749986,45.587387
2017-32503,2017-05-16,Vente,330300.0,RUE DE LA MISSION,4200.0,4209,Sisteron,04209000AS1075,5.944259,44.195632
2017-660659,2017-02-17,Vente,47500.0,RUE DE PARIS,45410.0,45008,Artenay,450080000A1655,,
2017-307081,2017-04-12,Vente,230500.0,RUE ALBERTO CAPPABIANCA,28000.0,28085,Chartres,28085000CK0049,1.525639,48.449937
2017-1347713,2017-04-04,Vente,332000.0,RUE AUGUSTE DELAUNE,94800.0,94076,Villejuif,94076000AT0017,2.362036,48.783732
2017-117321,2017-02-01,Vente,240000.0,TRAVERS DE DUNET,12110.0,12305,Viviez,12305000AI0161,2.221878,44.548908
2017-757462,2017-04-27,Vente,322101.0,RUE PIERRE DE SUFFREN,56890.0,56206,Saint-Avé,56206000CB0284,-2.747696,47.692754
2017-1272520,2017-05-02,Vente,200000.0,CHE MADAME,91770.0,91579,Saint-Vrain,91579000AH0261,2.323349,48.543834
2017-735760,2017-11-07,Vente,64500.0,VEAULORE,53250.0,53121,Javron-les-Chapelles,53121000AI0050,-0.324721,48.386165
2017-76837,2017-06-01,Vente,400000.0,LES CHAMPS,7800.0,7240,Saint-Georges-les-Bains,07240000ZA0109,4.819432,44.864841
2017-372862,2017-08-31,Vente,131000.0,ALL DU BAC,31150.0,31205,Gagnac-sur-Garonne,31205000AH0189,1.37308,43.704225
2017-990015,2017-05-24,Vente,149000.0,LA MASURE,72140.0,72256,Rouez,722560000D0489,-0.171772,48.135148
2017-450452,2017-07-27,Vente,79000.0,AV D ALLEMAGNE,33590.0,33193,Grayan-et-l'Hôpital,33193000AD0001,-1.151664,45.412412
2017-909921,2017-09-05,Vente,90000.0,AV DE BORDEAUX,65700.0,65304,Maubourguet,65304000AC0075,0.025263,43.472885
2017-1010609,2017-01-31,Vente,49700.0,CHEZ LES PIFFETS,73200.0,73202,Plancherine,732020000B0237,,
2017-625665,2017-01-30,Vente,162000.0,ALL DES TILLEULS,44700.0,44114,Orvault,44114000CZ0001,-1.606362,47.250165
2017-228836,2017-03-09,Vente,295000.0,RUE AMIRAL COURBET,21000.0,21231,Dijon,21231000HI0477,5.024589,47.325439
2017-609245,2017-06-14,Vente,482500.0,LA VIALLE,43800.0,43230,Saint-Vincent,432300000D1438,3.909262,45.151432
2017-624143,2017-12-13,Vente en l'état futur d'achèvement,223000.0,RUE DES MARSAUDERIES,44300.0,44109,Nantes,44109000RS0324,-1.53249,47.242633
2017-677416,2017-04-27,Echange,94316.17,LES BOULETIERS,47120.0,47321,Villeneuve-de-Duras,47321000AC0083,0.231365,44.754366
2017-1219427,2017-11-28,Vente,70000.0,RUE DES COMBATTANTS D'AFN,85690.0,85164,Notre-Dame-de-Monts,85164000AP0143,-2.131567,46.832295
2017-310788,2017-04-07,Vente,87292.0,LE MESNIL,28290.0,28012,Commune nouvelle d'Arrou,28012000ZW0076,1.131715,48.125047
2017-1046432,2017-02-08,Vente,228000.0,PL SAINT MEEN,76130.0,76451,Mont-Saint-Aignan,76451000AZ0515,1.085354,49.471574
2017-297679,2017-07-27,Vente,58000.0,LE BROUILLARD,27250.0,27427,Neaufles-Auvergny,27427000ZI0009,0.747713,48.856121
2017-271589,2017-01-20,Vente,199500.0,RUE DE GRAVELLE,25660.0,25410,Morre,25410000AA0639,6.069062,47.228119
2017-351790,2017-08-17,Vente,300000.0,FONTILLE,30000.0,30189,Nîmes,30189000CM0111,4.400186,43.862755
2017-365244,2017-01-31,Vente,170000.0,RUE JOUBERT,31500.0,31555,Toulouse,31555804AD0421,1.453792,43.617598
2017-364030,2017-12-28,Vente,138000.0,RTE DE MAZAC,30340.0,30294,Saint-Privat-des-Vieux,30294000BO0369,4.128182,44.144897
2017-644442,2017-05-31,Vente,200000.0,AV BOULANGER,44380.0,44132,Pornichet,44132000AC0634,-2.343795,47.269297
2017-879829,2017-09-25,Vente,161100.0,RUE ROGER SALENGRO,63360.0,63164,Gerzat,63164000BK0703,3.142189,45.824725
2017-209937,2017-07-27,Vente,40000.0,MORTEFON,17120.0,17442,Thaims,174420000B0306,-0.797976,45.614647
2017-607954,2017-04-24,Vente,60000.0,FG DE LYON,43140.0,43177,Saint-Didier-en-Velay,43177000BC0426,4.276115,45.303919
2017-414233,2017-12-20,Vente en l'état futur d'achèvement,140000.0,CRS DUPRE ST MAUR,33300.0,33063,Bordeaux,33063000SD0122,-0.553597,44.86908
2017-62613,2017-12-18,Vente en l'état futur d'achèvement,212520.0,IMP D ORMESSON,6110.0,6030,Le Cannet,06030000AY0284,7.020467,43.566293
2017-1300124,2017-03-01,Vente,450000.0,RTE DES GARDES,92190.0,92048,Meudon,92048000AC0017,2.226738,48.816038
2017-399975,2017-02-28,Vente,150000.0,AU VILLAGE,32500.0,32306,Pauilhac,323060000C1385,0.614647,43.876071
2017-337566,2017-10-25,Vente,135000.0,DREVERS PARC AN OGUEL TOST,29400.0,29264,Saint-Servais,292640000A0764,-4.165507,48.523204
2017-298982,2017-11-23,Vente,30000.0,LE PETIT CUISINET,27160.0,27112,Breteuil,271121590C0415,0.911754,48.783544
2017-127744,2017-08-01,Vente,250000.0,RUE JULES MOULET,13006.0,13206,Marseille 6e Arrondissement,132068280K0244,5.374231,43.284247
2017-1217995,2017-06-29,Vente,280000.0,SQ DES BECASSINES,85300.0,85047,Challans,85047000DD0194,-1.899474,46.839007
2017-1224119,2017-08-18,Vente,65000.0,LE GRAND PRE,86800.0,86268,Tercé,862680000B0666,0.549602,46.525091
2017-673696,2017-03-29,Vente,23500.0,FONDELACOSTE,47220.0,47060,Caudecoste,470600000B0291,0.734596,44.118825
2017-649969,2017-05-23,Vente,390000.0,AV DE LYON,44500.0,44055,La Baule-Escoublac,44055000BL0008,-2.359487,47.277924
2017-516901,2017-02-02,Vente,25131.0,LES COTES DE CHAUMONT,36230.0,36084,Gournay,360840000B0108,1.751056,46.590236
2017-1129372,2017-05-02,Vente,165000.0,RUE MAURICE SEIGNEURGENS,80800.0,80799,Villers-Bretonneux,807990000B0938,2.520667,49.868995
2017-414417,2017-11-09,Adjudication,326000.0,RES ATLANTIC GREEN,33680.0,33214,Lacanau,33214000CA1038,-1.161876,44.992707
2017-385211,2017-09-12,Vente en l'état futur d'achèvement,295000.0,GRAND NOBLE,31700.0,31069,Blagnac,31069000AD0366,1.37673,43.654397
2017-1030676,2017-06-21,Vente en l'état futur d'achèvement,140450.0,RUE DU CHATEAU,74950.0,74264,Scionzier,742640000I0517,6.549991,46.059656
2017-526894,2017-09-22,Vente en l'état futur d'achèvement,180000.0,RUE SAINT FRANCOIS,37520.0,37195,La Riche,37195000AO0173,0.666001,47.383995
2017-900908,2017-06-02,Vente,176000.0,CHEM D AROZTEGIA,64310.0,64495,Saint-Pée-sur-Nivelle,64495000AC0138,-1.571328,43.355697
2017-586578,2017-10-20,Vente,70000.0,BAS DES CERFS,41500.0,41130,Maves,411300000T0015,1.362366,47.732913
2017-68196,2017-12-06,Vente,282000.0,AV DES HESPERIDES,6400.0,6029,Cannes,06029000BZ0214,7.037736,43.54302
2017-1079846,2017-01-24,Vente,218000.0,CRS DES PETITES ECURIES,77185.0,77258,Lognes,77258000AH0416,2.633278,48.836949
2017-981894,2017-11-03,Vente,50000.0,RUE DES CHAMPS ROUSSOTS,71100.0,71076,Chalon-sur-Saône,71076000AI0269,4.852222,46.805919
2017-1439146,2017-10-12,Vente,417000.0,RUE DAMREMONT,75018.0,75118,Paris 18e Arrondissement,75118000AT0011,2.333065,48.889119
2017-976406,2017-03-10,Vente,66125.0,AV EDOUARD HERRIOT,71000.0,71270,Mâcon,71270000BL0112,4.828098,46.300218
2017-654832,2017-02-28,Vente,85000.0,RUE DES VARENNES,45650.0,45286,Saint-Jean-le-Blanc,45286000AY0368,1.925806,47.87967
2017-189444,2017-10-11,Vente,82000.0,RTE D'ECOSSAS,16150.0,16132,Étagnac,161320000F0092,,
2017-399203,2017-11-06,Vente,115000.0,CAZALETS,31420.0,31063,Benque,310630000A0554,0.929268,43.2622
2017-1191762,2017-04-11,Vente,170000.0,PL DES SERRES,84400.0,84047,Gargas,840470000A1378,5.353232,43.904577
2017-1030072,2017-05-22,Vente,120000.0,IMP DU HAMEAU DES PISTES,74120.0,74173,Megève,741730000F5783,6.626534,45.842464
2017-515910,2017-10-05,Vente,75000.0,RUE DES COLONELS DEIN,35240.0,35239,Retiers,35239000AC0070,-1.37466,47.915007
2017-411659,2017-10-16,Vente,135520.0,LE MARCHAND,33460.0,33262,Macau,332620000A1126,-0.584328,45.004487
2017-1118413,2017-12-18,Vente,251500.0,PLAINE DE CHEVINCOURT,78470.0,78575,Saint-Rémy-lès-Chevreuse,785750000B0390,2.087534,48.717872
2017-504958,2017-05-27,Vente,86000.0,LA HAUTE SOULIERE,35133.0,35163,Luitré-Dompierre,35163000AY0050,-1.126222,48.280355
2017-228456,2017-02-16,Vente,239750.0,RUE PIERRE MEUNIER,21800.0,21515,Quetigny,21515000ZD0101,5.1214,47.314201
2017-800315,2017-12-12,Vente,160000.0,RUE DU COMMANDANT BOSSUT,59150.0,59650,Wattrelos,59650000AX0175,3.203799,50.69792
2017-805009,2017-09-06,Vente,137350.0,RUE SCRIVE,59700.0,59378,Marcq-en-Barœul,59378000BV0480,3.074929,50.66595
2017-841121,2017-09-15,Vente,127000.0,LES CARRIERES DE VINEUIL,60500.0,60695,Vineuil-Saint-Firmin,60695000AB0465,2.487071,49.200998
2017-852815,2017-12-28,Vente,102350.0,RUE DU QUATORZE JUILLET,62210.0,62065,Avion,62065000AB0286,2.825225,50.409441
2017-783967,2017-04-05,Vente,155000.0,CHE DU PETIT PARADIS,59118.0,59636,Wambrechies,596360000B6848,3.05702,50.6831
2017-1232648,2017-04-27,Vente,63700.0,LE VERDURIER,87400.0,87062,Eybouleuf,870620000A0010,1.451199,45.802941
2017-1121602,2017-07-28,Vente,55000.0,RUE DE RIBRAY,79000.0,79191,Niort,79191000BH0908,-0.472406,46.323014
2017-654304,2017-01-26,Vente,60000.0,RUE DE LA PERRIERE,45380.0,45075,La Chapelle-Saint-Mesmin,45075000BB0548,1.823355,47.890446
2017-826681,2017-10-03,Vente,239000.0,RUE PASTEUR,59300.0,59606,Valenciennes,596060000E0229,3.531512,50.362625
2017-1393054,2017-11-29,Vente,200000.0,LOT COGNEAU EST,97351.0,97307,Matoury,97307000AH0716,-52.319404,4.873546
2017-1165408,2017-07-19,Vente,249000.0,LES ESPREVEIRES,83136.0,83077,Méounes-lès-Montrieux,830770000C0689,5.969462,43.269691
2017-1340617,2017-04-06,Vente,250000.0,VLA PETIT PARC,94000.0,94028,Créteil,94028000AX0201,2.458465,48.793757
2017-1189238,2017-10-06,Vente,366000.0,LA DARMANE,84000.0,84007,Avignon,84007000HL0240,4.818598,43.923837
2017-117188,2017-01-11,Vente,40000.0,CAUSSE DE BROS,12200.0,12205,La Rouquette,122050000C1565,1.973059,44.33849
2017-291708,2017-02-07,Vente,260280.0,GREZES,26290.0,26145,Les Granges-Gontardes,26145000AA0436,4.764493,44.416868
2017-1334514,2017-10-23,Vente,186500.0,ALL DE LA COLLINE,93160.0,93051,Noisy-le-Grand,93051000CE0040,2.574147,48.837912
2017-36148,2017-04-14,Vente,80000.0,LES BELLEROTS,5300.0,5070,Laragne-Montéglin,05070000AH0239,5.838871,44.318727
2017-147648,2017-09-01,Vente,76000.0,PL DE LA FERRAGE,13300.0,13103,Salon-de-Provence,13103000AH0090,5.096921,43.637225
2017-384711,2017-08-31,Vente,119500.0,ALL MARYSE BASTIE,31840.0,31032,Aussonne,31032000ZB0860,1.31944,43.687936
2017-1230187,2017-11-10,Vente,45000.0,LA TUILERIE,86390.0,86120,Lathus-Saint-Rémy,861200000I0681,0.913687,46.352043
2017-485577,2017-07-28,Vente,55000.0,COMBELOUBIERES,34290.0,34166,Montblanc,341660000D0854,3.341992,43.382151
2017-1177426,2017-01-19,Vente,190000.0,CAMPOURRI,83190.0,83090,Ollioules,83090000BP0159,5.858272,43.128222
2017-1070499,2017-12-22,Vente,411400.0,RUE DE L ETANG,77150.0,77249,Lésigny,77249000AP0045,2.606238,48.742397
2017-209864,2017-07-10,Vente,40000.0,LE BOURG,17800.0,17227,Mazerolles,17227000AC0071,-0.583184,45.548491
2017-879816,2017-09-25,Vente,314700.0,LA PIREYRE,63160.0,63146,Égliseneuve-près-Billom,63146000ZE0035,3.402536,45.725714
2017-584861,2017-06-12,Vente,155000.0,LE MOULIN A VENT,41160.0,41172,Ouzouer-le-Doyen,411720000D0329,1.344139,47.941054
2017-1206713,2017-08-28,Vente,135000.0,RUE FRANCOIS SAVY,85400.0,85216,Sainte-Gemme-la-Plaine,85216000AB0340,-1.118112,46.477222
2017-433190,2017-06-20,Vente,230970.0,CHE DE PASQUETTE,33210.0,33504,Sauternes,335040000B0131,-0.345169,44.534502
2017-1128910,2017-03-31,Vente,165000.0,RUE ST PIERRE,80420.0,80318,Flixecourt,80318000AK0210,2.0833,50.010286
2017-192565,2017-02-06,Vente,26000.0,RUE DE CHYPRE,17137.0,17153,Esnandes,17153000AB0293,-1.111993,46.249657
2017-1047812,2017-06-09,Vente,236000.0,RUE DE LA REPUBLIQUE BIHOREL,76420.0,76095,Bihorel,76095000AH0758,1.116941,49.451743
2017-125903,2017-04-11,Vente en l'état futur d'achèvement,200000.0,BD DE PONT DE VIVAUX,13010.0,13210,Marseille 10e Arrondissement,132108570B0203,5.426299,43.282067
2017-594057,2017-12-20,Vente,74151.0,RUE DE LA REPUBLIQUE,42000.0,42218,Saint-Étienne,42218000BW0121,4.390754,45.439108
2017-841786,2017-10-25,Vente,110000.0,RES DU CHEVAL BLANC,60800.0,60176,Crépy-en-Valois,60176000AE0445,2.885863,49.233067
2017-402104,2017-08-07,Vente,130100.0,A EN MANEGUE,32550.0,32307,Pavie,32307000BA0044,0.56304,43.603058
2017-985567,2017-08-23,Vente,55000.0,HAUT DE VOYEN,71150.0,71496,Sampigny-lès-Maranges,714960000C0055,4.651287,46.898501
2017-643296,2017-04-03,Vente,230790.0,BD PRESIDENT WILSON,44600.0,44184,Saint-Nazaire,44184000XV0036,-2.209063,47.271276
2017-205918,2017-06-15,Vente,150000.0,ALL GEORGES BRASSENS,17430.0,17449,Tonnay-Charente,17449000AN0191,-0.897422,45.946733
2017-1277196,2017-10-06,Vente en l'état futur d'achèvement,243900.0,GRAVIERS DSU FONTAINE CADO,91650.0,91105,Breuillet,91105000AO0392,2.169046,48.57259
2017-483672,2017-04-05,Vente,232700.0,IMP DE MALDORMIR,34340.0,34150,Marseillan,34150000EH0094,3.549592,43.32796
2017-956126,2017-03-03,Vente,173000.0,AV FRANCIS DE PRESSENSE,69200.0,69259,Vénissieux,69259000AE0069,4.866138,45.722697
2017-97264,2017-02-28,Vente,42570.0,LE VILLAGE,10280.0,10353,Saint-Mesmin,10353000AD0441,3.923572,48.445222
2017-883610,2017-07-05,Vente,59000.0,PRE MAILLARD,63440.0,63043,Blot-l'Église,63043000ZR0043,2.931619,46.034875
2017-612180,2017-12-21,Vente,275200.0,IMP DU BERGER,43200.0,43211,Saint-Maurice-de-Lignon,43211000CH0052,4.124377,45.198209
2017-403476,2017-04-26,Vente,43500.0,A CAZAUBON,32240.0,32449,Toujouse,324490000A0346,-0.1744,43.838038
2017-242596,2017-04-06,Vente,33740.0,LE CLOS D EMBAS,22150.0,22281,Saint-Carreuc,222810000B1193,-2.744278,48.404724
2017-859106,2017-06-30,Vente,140000.0,RUE GERMAIN DELEBECQUE,62800.0,62510,Liévin,62510000AD0418,,
2017-270615,2017-08-08,Vente,289750.0,LES BRUGNES,24220.0,24396,Saint-Cyprien,243960000E0433,1.016214,44.878013
2017-1010510,2017-02-03,Vente en l'état futur d'achèvement,234869.0,CHE COL ROLLET,73100.0,73008,Aix-les-Bains,73008000BV0239,5.910881,45.704462
2017-302170,2017-12-15,Vente,120000.0,RUE DU FOUR A PAIN,27230.0,27106,Bournainville-Faverolles,27106000ZH0002,0.490982,49.12677
2017-645925,2017-08-28,Vente,247000.0,AV PIERRE DE COUBERTIN,44600.0,44184,Saint-Nazaire,44184000CN0035,-2.234082,47.269764
2017-374586,2017-10-30,Vente en l'état futur d'achèvement,180689.0,LAPPAROU,31200.0,31555,Toulouse,31555830AD0085,1.432373,43.656635
2017-651479,2017-11-13,Echange,128000.0,ILE DE LA PIERRIERE,44350.0,44069,Guérande,44069000BM0922,-2.409024,47.326045
2017-352585,2017-10-03,Vente,84000.0,RUE DU CHEF MARCEAU,30120.0,30350,Le Vigan,30350000AB0179,3.605508,43.990987
2017-46590,2017-12-19,Vente,338000.0,LE COLLET,6340.0,6149,La Trinité,06149000BC0408,7.311487,43.734455
2017-1238999,2017-09-25,Vente,70000.0,CHEZ PAULET,87320.0,87028,Val-d'Oire-et-Gartempe,870280000F0092,0.895221,46.235193
2017-1214124,2017-10-30,Vente,207178.0,RUE DES CAILLES,85340.0,85194,Les Sables-d'Olonne,85194166BL0519,-1.784146,46.524313
2017-1354611,2017-04-06,Vente,157000.0,ALL DES BERGES,94370.0,94071,Sucy-en-Brie,94071000AB0054,2.516712,48.785371
2017-1134596,2017-06-22,Vente en l'état futur d'achèvement,132000.0,IMP DES SIFFLEURS,80230.0,80721,Saint-Valery-sur-Somme,80721000AT0279,1.619838,50.181012
2017-1208649,2017-02-28,Vente,157000.0,LA GRANDE MAISON,85440.0,85288,Talmont-Saint-Hilaire,852882280A0990,-1.646348,46.495947
2017-1376251,2017-03-15,Vente,222000.0,RUE DES CHESNEAUX,95160.0,95428,Montmorency,95428000AE0486,2.309453,48.976263
2017-725120,2017-01-26,Vente,25000.0,RUE DU GENIE,52400.0,52060,Bourbonne-les-Bains,52060000AI0023,5.745759,47.954357
2017-980836,2017-08-01,Vente,64300.0,LE MATENAUX,71640.0,71403,Saint-Denis-de-Vaux,714030000B0950,4.690795,46.789004
2017-583435,2017-02-09,Vente,60000.0,LE BOURG,41120.0,41052,Chitenay,410520000C0147,1.371134,47.496916
2017-543221,2017-03-15,Vente en l'état futur d'achèvement,159000.0,LE MAS,38120.0,38170,Fontanil-Cornillon,38170000AD0343,5.662135,45.253494
2017-1077498,2017-07-28,Vente,110000.0,RUE DE LA GARE,77570.0,77099,Château-Landon,77099000AM0008,2.697215,48.149873
2017-391177,2017-08-02,Vente,225000.0,CHE DU COLLEGE PERIGORD,31670.0,31254,Labège,31254000BB0114,1.524811,43.531287
2017-646724,2017-09-19,Vente,170000.0,LA LANDE,44480.0,44052,Donges,44052000YL0222,-2.089846,47.325124
2017-700461,2017-12-20,Vente,48000.0,PIECE DU BAS DES PLANTES,49420.0,49248,Ombrée d'Anjou,492483090F0026,-1.159113,47.693968
2017-1221556,2017-03-30,Vente,276437.66,LE CHIRON,86170.0,86177,Neuville-de-Poitou,86177000ZR0329,0.266399,46.681308
2017-302167,2017-12-06,Vente,160000.0,RUE DE LA RUBANNERIE,27230.0,27106,Bournainville-Faverolles,27106000ZE0064,0.482771,49.130742
2017-733560,2017-10-17,Vente,24420.5,LA LONGUE NOE DU BAS,53170.0,53273,Villiers-Charlemagne,532730000D0713,,
2017-565439,2017-04-19,Vente,70000.0,RUE DE LA MAIRIE,39210.0,39244,Frontenay,39244000ZI0121,5.615028,46.783132
2017-1366486,2017-05-24,Vente,394450.0,RUE DU BAS VAL MARY,95630.0,95392,Mériel,95392000AL0332,2.19965,49.072029
2017-683946,2017-04-21,Vente,210000.0,BOIS DU BOURG,49250.0,49050,Brissac Loire Aubance,49050317ZE0059,-0.328384,47.389138
2017-478016,2017-04-25,Vente,99521.0,RUE GEORGES SAND,34370.0,34069,Cazouls-lès-Béziers,340690000D1601,3.113503,43.387414
2017-831484,2017-11-24,Vente,145000.0,RUE ROGER SALENGRO,60110.0,60395,Méru,60395000AD0253,2.134225,49.237769
2017-1350367,2017-08-07,Vente,173000.0,RES MEDICIS,94150.0,94065,Rungis,940650000J0033,2.349018,48.746903
2017-337850,2017-11-30,Vente,39000.0,RUE DE PLOUJEAN,29600.0,29151,Morlaix,29151000BK0204,-3.828515,48.580117
2017-794886,2017-06-13,Vente,118825.0,RUE GIRAUD,59160.0,59350,Lille,593503550B6997,2.990255,50.634548
