id_mutation,date_mutation,nature_mutation,valeur_fonciere,adresse_nom_voie,code_postal,code_commune,nom_commune,id_parcelle,longitude,latitude
2018-812449,2018-11-13,Vente,40000.0,RUE DE L ESPERANCE,59600.0,59392,Maubeuge,593920000V0378,3.943434,50.267417
2018-976013,2018-12-21,Vente,49000.0,LA TEPPE,71190.0,71192,Étang-sur-Arroux,711920000A0979,4.229153,46.889918
2018-689501,2018-09-06,Vente,120000.0,IGNE,49700.0,49100,Cizay-la-Madeleine,49100000ZC0352,-0.198984,47.208459
2018-663856,2018-09-24,Vente,48000.0,RUE DES TERMES,46400.0,46273,Saint-Laurent-les-Tours,46273000AB0218,1.886764,44.868031
2018-570353,2018-12-28,Vente,100000.0,MOURCAOU,40410.0,40227,Pissos,402270000T0333,-0.815127,44.311603
2018-852893,2018-10-23,Vente,68750.0,RES ARTHUR VAN HECKE,62114.0,62737,Sains-en-Gohelle,62737000AK0451,2.684661,50.452612
2018-277546,2018-10-10,Vente,160000.0,VILLAGE HAUT,25320.0,25084,Boussières,25084000AD0094,5.906806,47.156963
2018-1290536,2018-09-04,Vente,534000.0,PL CORNEILLE,92100.0,92012,Boulogne-Billancourt,92012000BL0196,2.248237,48.830755
2018-879822,2018-07-27,Vente,120750.0,LE PRADEL,63480.0,63207,Marat,63207000AZ0313,3.672311,45.658553
2018-405049,2018-02-20,Vente,234210.0,CRS SAINT LOUIS,33300.0,33063,Bordeaux,33063000RO0055,-0.56608,44.860663
2018-376507,2018-12-04,Vente en l'état futur d'achèvement,159500.0,,,31555,Toulouse,31555812AD0091,1.440789,43.579103
2018-973188,2018-06-11,Vente,172000.0,RUE ERNEST CARRIER,71600.0,71342,Paray-le-Monial,71342000AB0038,4.109198,46.459302
2018-621356,2018-05-02,Vente,377000.0,LA PENETRIE,44190.0,44064,Gorges,44064000AW0097,-1.305978,47.118989
2018-25058,2018-09-27,Vente,134000.0,RUE DES POTIERS,3000.0,3190,Moulins,03190000AN0054,3.338745,46.568189
2018-831706,2018-04-13,Vente terrain à bâtir,532421.94,LE DEPROFONDIS,60800.0,60479,Ormoy-Villers,60479000ZC0060,2.839936,49.19859
2018-1192395,2018-11-12,Vente,310000.0,RUE PIERRE BEREGOVOY,85000.0,85191,La Roche-sur-Yon,85191000AN0102,-1.42941,46.668159
2018-88812,2018-01-10,Vente,65000.0,LE VILLAGE,8130.0,8458,Tourteron,08458000ZD0024,,
2018-510782,2018-12-29,Vente,80000.0,RUE DE LA ROCHE AUX FEES,35130.0,35235,Rannée,35235000AA0165,-1.241691,47.924399
2018-550852,2018-03-02,Vente,240000.0,CHAMP SEVER NORD,38121.0,38107,Chonas-l'Amballan,38107000AD0814,4.824278,45.465218
2018-269442,2018-11-05,Vente,335600.0,CORAIL NORD,24140.0,24345,Queyssac,243450000C0588,0.503609,44.92075
2018-1208568,2018-12-20,Vente,516925.5,IMP DU PEY BRULE,85160.0,85234,Saint-Jean-de-Monts,85234000BX0175,-1.994413,46.763233
2018-345767,2018-07-10,Vente,112000.0,LUPINO RESIDENCES DU PARC,20600.0,2B033,Bastia,2B033000AY0465,9.44348,42.68415
2018-85250,2018-06-12,Vente,70000.0,LE BOCHET,8260.0,8156,Éteignières,081560000D1088,,
2018-1091370,2018-08-24,Vente en l'état futur d'achèvement,236000.0,RUE PIERRE CURIE,78370.0,78490,Plaisir,78490000BK0265,1.977032,48.804177
2018-811035,2018-06-21,Vente,74500.0,RUE FAIDHERBE,59460.0,59324,Jeumont,59324000AK0877,4.108166,50.296457
2018-103276,2018-07-16,Vente,400000.0,LA BOUSIGUE,11240.0,11004,Alaigne,110040000D0290,2.088337,43.08578
2018-290265,2018-09-11,Vente,193000.0,LE SERRE,26340.0,26371,Véronne,263710000B0100,5.219912,44.747481
2018-275321,2018-05-14,Vente,255000.0,CHE DE LA VOSSELLE,25000.0,25056,Besançon,25056000DS0130,6.006684,47.223904
2018-577661,2018-02-08,Vente,201950.0,CHE DES MOULINS A VENT,41700.0,41094,Fresnes,410940000B1134,,
2018-1210643,2018-04-16,Vente,75000.0,MOULIN CHAPRON,86130.0,86115,Jaunay-Marigny,86115000CN0018,0.350136,46.711655
2018-364706,2018-10-12,Vente,234407.0,AV DES MALADRERIES,30100.0,30007,Alès,30007000BS0640,4.102506,44.122354
2018-730322,2018-03-23,Vente,459450.0,RUE DES GLACIS,54000.0,54395,Nancy,54395000AL0459,6.175133,48.699895
2018-574802,2018-08-20,Vente en l'état futur d'achèvement,144000.0,CHE DE GRAND JEAN,40390.0,40273,Saint-Martin-de-Seignanx,40273000AO0232,-1.390993,43.544638
2018-324050,2018-11-20,Vente,200000.0,KERFLOUS,29390.0,29274,Scaër,292740000M0915,-3.737329,48.02063
2018-212421,2018-12-08,Vente,200500.0,RTE DE POMPIERRE,17600.0,17421,Saujon,174210000B0099,-0.911531,45.666415
2018-363182,2018-04-06,Vente,38223.25,SERRE D ASTEYRARGUES,30340.0,30318,Servas,303180000B0316,4.204996,44.161811
2018-201183,2018-02-02,Vente,155000.0,CITE DE LA CHASSE,17480.0,17093,Le Château-d'Oléron,17093000AE0047,-1.211388,45.886905
2018-97425,2018-11-24,Vente,213000.0,GR GRANDE RUE,10190.0,10240,Messon,102400000C1161,3.906329,48.265159
2018-107220,2018-03-14,Vente,45000.0,LE VILLAGE,11200.0,11332,Saint-André-de-Roquelongue,113320000A1287,2.836834,43.114306
2018-28276,2018-03-10,Vente,60000.0,RTE DE ST DESIRE,3370.0,3072,Chazemais,03072000ZT0042,2.515842,46.483346
2018-386758,2018-10-25,Vente en l'état futur d'achèvement,221000.0,METGE,31700.0,31150,Cornebarrieu,31150000AP0299,1.311711,43.638488
2018-517800,2018-03-23,Vente,516500.0,L AUGEONNIERE,37510.0,37272,Villandry,37272000ZB0022,0.53575,47.326553
2018-468749,2018-05-14,Adjudication,201000.0,RUE DES HORTS,34560.0,34213,Poussan,34213000BH0004,3.671442,43.486439
2018-85894,2018-08-24,Vente,66000.0,RUE JEAN BOURGUIGNON,8000.0,8105,Charleville-Mézières,08105000AK0738,4.714083,49.77636
2018-1209377,2018-02-15,Vente,72000.0,RUE GRIGNION DE MONTFORT,86000.0,86194,Poitiers,86194000BT0078,0.340163,46.58778
2018-458744,2018-10-25,Vente,81032.37,RUE DE LA PALISSADE,34000.0,34172,Montpellier,34172000HW0906,3.868882,43.607542
2018-551734,2018-04-24,Vente,145000.0,LA CROIX,38090.0,38339,Roche,38339000AE0618,5.163872,45.58689
2018-656647,2018-06-15,Vente,156000.0,LES JOLIS,45220.0,45083,Château-Renard,45083000ZX0005,2.944956,47.94775
2018-447437,2018-12-04,Vente,494500.0,LE LUC,33990.0,33203,Hourtin,33203000BC0922,-1.066347,45.191605
2018-285707,2018-01-15,Vente,160000.0,LADEVEAUX,26120.0,26206,Montmeyran,26206000AT0481,4.971511,44.835372
2018-428336,2018-04-20,Vente,249000.0,AUX BRYONS,33450.0,33433,Saint-Loubès,334330000C2958,-0.417363,44.917915
2018-1070816,2018-03-13,Vente en l'état futur d'achèvement,199000.0,RUE DES BONNES VIGNES,77181.0,77139,Courtry,77139000BB0332,2.600834,48.917965
2018-267084,2018-11-20,Vente,303740.0,VACHER,24470.0,24498,Saint-Saud-Lacoussière,244980000B1297,0.831962,45.572276
2018-311003,2018-12-03,Vente,260000.0,RUE DE LA FONTAINE,28320.0,28168,Gallardon,28168000AC0807,1.692338,48.523874
2018-663521,2018-08-06,Vente,96850.0,LE BOURG,46120.0,46034,Le Bourg,46034000AB0073,1.904219,44.708955
2018-1174683,2018-02-28,Vente,248000.0,IMP MAGALI,84000.0,84007,Avignon,84007000HZ0694,4.806825,43.93878
2018-532598,2018-06-06,Vente,57810.0,RUE JEAN MOULIN,38320.0,38158,Eybens,38158000AI0062,5.742961,45.14782
2018-599021,2018-08-01,Vente,188000.0,RUE DE LA ROUTE BLEUE,42590.0,42325,Vendranges,42325000ZE0066,4.137279,45.943302
2018-105741,2018-11-17,Vente,60000.0,RUE DE L ANGUILLE,11800.0,11397,Trèbes,11397000CA0282,2.442253,43.209928
2018-83546,2018-11-05,Vente,80000.0,RTE DE LA CHAUX,7340.0,7172,Peaugres,07172000AY0078,4.731768,45.281538
2018-238788,2018-02-05,Vente,120000.0,RUE DU STAND,21200.0,21054,Beaune,21054000AI0159,4.852581,47.028977
2018-815374,2018-11-15,Vente,32020.0,DROITE DU RAVIN,59730.0,59571,Solesmes,59571000ZC0057,3.515339,50.189512
2018-485439,2018-03-22,Vente terrain à bâtir,62790.0,LE CHAMP MAUVY,35850.0,35120,Gévezé,35120000AK0475,-1.793783,48.21595
2018-501895,2018-06-08,Vente,257500.0,RUE DE BELLE ILE,35890.0,35139,Laillé,35139000AC0306,-1.713931,47.97747
2018-1291282,2018-10-12,Vente,315000.0,RUE DES CAPUCINS,92190.0,92048,Meudon,92048000AC0059,2.226979,48.815281
2018-925645,2018-09-13,Vente,330980.0,RUE DE LA GARENNE,69005.0,69385,Lyon 5e Arrondissement,69385000BD0064,4.773105,45.75091
2018-20434,2018-07-24,Vente,28500.0,SUR LES FOSSES,2220.0,2110,Braine,021100000C0696,3.534344,49.344756
2018-919019,2018-08-03,Vente,125000.0,PRAT DEL BOIX,66150.0,66009,Arles-sur-Tech,660090000C0479,,
2018-1140592,2018-12-05,Vente,164200.0,CHE DU FRAYSSE BAS,82200.0,82112,Moissac,82112000AX0202,1.092249,44.117654
2018-536125,2018-01-24,Vente,75000.0,AV HONORE DE BALZAC,38340.0,38565,Voreppe,38565000BI0520,5.637844,45.294919
2018-1279787,2018-07-20,Vente,235000.0,AV DES GRESILLONS,92600.0,92004,Asnières-sur-Seine,92004000AY0015,2.30165,48.914368
2018-154043,2018-06-21,Vente,206550.0,RUE MARTIN LUTHER KING,13127.0,13117,Vitrolles,13117000BT0335,5.254719,43.445672
2018-1355521,2018-10-15,Vente en l'état futur d'achèvement,164000.0,VILLAGE DE PIERRELAYE,95480.0,95488,Pierrelaye,95488000AB1060,2.160638,49.022524
2018-393222,2018-02-21,Vente,93100.0,LA MANDILLE,31430.0,31476,Saint-Élix-le-Château,314760000A1841,1.134938,43.285675
2018-681830,2018-07-13,Vente,181359.0,GD ASSAY,49380.0,49345,Bellevigne-en-Layon,493451330B0113,-0.484821,47.245821
2018-102520,2018-05-17,Vente,211925.62,MICHARRE,11410.0,11114,Cumiès,11114000ZC0042,1.839908,43.301784
2018-621699,2018-04-23,Vente,126000.0,GR GRAND RUE,44270.0,44119,Paulx,44119000AB0252,-1.755601,46.96107
2018-1181767,2018-07-04,Vente,363000.0,LES IMBARDES,84400.0,84003,Apt,84003000BM0226,5.415833,43.875797
2018-242909,2018-01-24,Vente,80000.0,RUE DES PLATIERES,22370.0,22186,Pléneuf-Val-André,221860000J0752,-2.554647,48.589208
2018-704136,2018-12-21,Vente,150000.0,LA CONTERIE,50190.0,50210,Gorges,50210000ZB0041,-1.406255,49.266891
2018-684859,2018-04-24,Vente,71533.4,GRAND CHAMP,49230.0,49301,Sèvremoine,493012730D0742,-1.241728,47.098873
2018-645115,2018-05-14,Vente,178000.0,LE PATIS POURUE,44390.0,44110,Nort-sur-Erdre,44110000YW0071,-1.561457,47.462969
2018-64499,2018-02-15,Vente,420000.0,AV MAURICE DERCHE,6400.0,6029,Cannes,06029000BI0176,7.015152,43.560825
2018-375277,2018-10-25,Vente,441700.0,BD DE LA MEDITERRANEE,31400.0,31555,Toulouse,31555811AD0281,1.461199,43.586944
2018-1143548,2018-01-31,Vente,158000.0,RUE JEAN JAURES,83600.0,83061,Fréjus,83061000BE0124,6.73499,43.43264
2018-55220,2018-03-07,Vente en l'état futur d'achèvement,370000.0,RTE D ASPREMONT,6690.0,6147,Tourrette-Levens,061470000E1953,7.258993,43.797963
2018-620448,2018-03-26,Vente,128000.0,RUE ABBE LAROSE,44190.0,44064,Gorges,44064000AC0254,-1.303071,47.101981
2018-574396,2018-07-27,Vente en l'état futur d'achèvement,260000.0,JANICOUTON,40130.0,40065,Capbreton,40065000AH0498,-1.413935,43.646084
2018-1147473,2018-08-06,Vente,295000.0,RUE DES CAMPANETTES,83600.0,83061,Fréjus,83061000BK0661,6.734339,43.42619
2018-877065,2018-08-30,Vente,39000.0,BONNABAUD,63230.0,63385,Saint-Pierre-le-Chastel,63385000ZL0022,2.840909,45.791329
2018-1009519,2018-06-14,Vente en l'état futur d'achèvement,49000.0,GR GRAND RUE,74350.0,74096,Cruseilles,740960000D4733,6.106294,46.033407
2018-1103013,2018-09-19,Vente,218000.0,RUE DU COLONEL FABIEN,78520.0,78335,Limay,78335000BA0245,1.750001,48.986029
2018-1009935,2018-06-25,Vente,88800.0,RUE FILATERIE,74150.0,74225,Rumilly,74225000AO0253,5.942775,45.866508
2018-824110,2018-10-29,Vente,133000.0,RUE DU GENERAL LECLERC,60930.0,60041,Bailleul-sur-Thérain,60041000AD0047,2.249032,49.383714
2018-327705,2018-08-22,Vente,120000.0,RUE DE KERANGUENE,29810.0,29201,Ploumoguer,29201000AB0140,-4.720638,48.399673
2018-1284384,2018-06-13,Vente,110000.0,RUE MARTRE,92110.0,92024,Clichy,920240000K0192,2.305106,48.903605
2018-470031,2018-11-13,Vente,249000.0,CHE DES MONTARELS,34140.0,34157,Mèze,34157000CV0215,3.595916,43.427198
2018-1076517,2018-09-27,Vente en l'état futur d'achèvement,186000.0,RUE CHARLES VAILLANT,77144.0,77075,Chalifert,770750000B1621,,
2018-264754,2018-06-19,Vente,23000.0,SOUS LE MOULIN,24300.0,24001,Abjat-sur-Bandiat,240010000B1064,0.76799,45.580465
2018-1414979,2018-06-07,Vente,387000.0,RUE JEAN DE LA FONTAINE,75016.0,75116,Paris 16e Arrondissement,75116000BU0044,2.273028,48.851864
2018-554160,2018-09-18,Vente,245490.0,IMP PIERRE DE TERRAIL,38230.0,38085,Charvieu-Chavagneux,38085000AB0444,5.144197,45.755197
2018-24148,2018-01-30,Echange,43950.0,LES BORDES,3240.0,3281,Le Theil,03281000ZA0043,3.120181,46.386844
2018-753547,2018-10-31,Vente,183100.0,LE GRAND PRE DE SAINT ROCH,56220.0,56196,Rochefort-en-Terre,56196000AC0191,-2.345851,47.698552
2018-306892,2018-10-16,Vente,90000.0,RES JARDINS D AURELIS -BAT F,27210.0,27065,Beuzeville,27065000AI0075,0.350879,49.342324
2018-100046,2018-09-05,Vente,85000.0,LES CHEVREAUX,10160.0,10003,Aix-Villemaur-Pâlis,100030000G0505,3.720953,48.158921
2018-1223400,2018-07-25,Vente,70000.0,RTE DU STADE - CHEZ VIGNETTE,87440.0,87168,Saint-Mathieu,871680000A1786,0.769909,45.706857
2018-1022477,2018-10-23,Vente,285575.0,MTE DES MOENTIEUX,74400.0,74056,Chamonix-Mont-Blanc,740560000G5165,6.85779,45.921438
2018-1111218,2018-07-20,Vente,105000.0,LE POMMIER,79400.0,79114,Exireuil,791140000A0674,-0.186063,46.478527
2018-118172,2018-10-31,Vente,47000.0,AYSSENES,12430.0,12017,Ayssènes,12017000AB0139,2.77878,44.068303
2018-542525,2018-03-26,Vente en l'état futur d'achèvement,25000.0,COULLET,38750.0,38191,Huez,38191000AB0086,6.071493,45.097241
2018-899804,2018-01-05,Vente,108000.0,VILLAGE,65220.0,65178,Fréchède,651780000C0318,0.259033,43.367303
2018-505728,2018-05-31,Vente,340012.1,RUE ALBERT 1ER,35260.0,35049,Cancale,350490000G0689,-1.858811,48.669239
2018-1250877,2018-07-11,Vente,200000.0,SQ LA BRUYERE,91000.0,91228,Évry-Courcouronnes,91228000AC0056,2.438245,48.636829
2018-453194,2018-06-29,Vente,190000.0,RUE DE LA ROUBINE,34130.0,34154,Mauguio,34154000CM0474,3.994351,43.616838
2018-83139,2018-09-17,Vente,123750.0,LES COMBES NORD,7500.0,7102,Guilherand-Granges,07102000AO0577,4.869156,44.925194
2018-96415,2018-09-17,Vente,91250.0,LE GRAND VERGER,10130.0,10251,Montigny-les-Monts,10251000AC0063,3.947543,48.102711
2018-191235,2018-12-26,Vente,33000.0,LA FORET,16150.0,16132,Étagnac,161320000A0059,0.781248,45.916278
2018-297234,2018-02-02,Vente,35000.0,RUE DES LOMBARDS,27000.0,27229,Évreux,27229000XC0043,1.149724,49.027777
2018-825249,2018-03-08,Vente,66500.0,RUE ROGER DUPLESSIS,60140.0,60360,Liancourt,60360000AL0312,2.466634,49.328213
2018-1208777,2018-12-26,Vente en l'état futur d'achèvement,167500.0,RUE CARNOT,85300.0,85047,Challans,85047000AC0693,-1.883013,46.847016
2018-894259,2018-07-25,Vente,325000.0,MARINE,64240.0,64256,Hasparren,642560000C1356,-1.262356,43.437357
2018-1033432,2018-07-11,Vente,85000.0,AV DE CAEN,76100.0,76540,Rouen,76540000NB0117,1.075259,49.430035
2018-275919,2018-07-03,Vente,69300.0,EN BAGEOLE,25340.0,25246,Fontaine-lès-Clerval,252460000D0650,6.469743,47.421401
2018-1372462,2018-01-31,Vente,87500.0,CANTAMERLE,97130.0,97107,Capesterre-Belle-Eau,97107000BE0369,-61.599854,16.014313
2018-1055174,2018-05-02,Vente en l'état futur d'achèvement,277000.0,RUE DE L'ORGE,77240.0,77495,Vert-Saint-Denis,774950000C3025,2.612632,48.573584
2018-156849,2018-12-13,Vente,283125.0,RUE AUGUSTE TOURREL,13220.0,13026,Châteauneuf-les-Martigues,13026000AK0012,5.164308,43.388894
2018-166621,2018-10-30,Vente,129600.0,RES DE L ARC,14000.0,14118,Caen,14118000HB0089,-0.349244,49.194578
2018-1295953,2018-05-14,Vente en l'état futur d'achèvement,369000.0,AV DIVISION LECLERC,92160.0,92002,Antony,92002000CI0138,2.302084,48.73752
2018-1362272,2018-02-12,Vente,313000.0,RUE LAURENCE,95320.0,95563,Saint-Leu-la-Forêt,95563000BL0307,2.235057,49.012925
2018-890921,2018-01-17,Vente,300000.0,RUE SAINTE MADELEINE,64600.0,64024,Anglet,64024000BS0326,-1.538245,43.489148
2018-84114,2018-12-28,Vente,105000.0,LES RIEUX,7130.0,7070,Cornas,070700000B1052,4.822175,44.962488
2018-401543,2018-08-10,Vente,300000.0,A MOUSTEOU,32160.0,32036,Beaumarchés,320360000D1537,0.120873,43.57763
2018-969312,2018-04-03,Vente,245283.0,AV BOUCICAUT,71100.0,71076,Chalon-sur-Saône,71076000DL0083,4.833139,46.789581
2018-356737,2018-12-26,Vente,239000.0,MOULIN DE L AURE,30600.0,30341,Vauvert,30341000AK0072,4.262272,43.706713
2018-388035,2018-12-14,Vente,119000.0,RUE DE LA SOLIDARITE,31830.0,31424,Plaisance-du-Touch,31424000AZ0060,1.287499,43.582419
2018-312978,2018-02-14,Vente,169000.0,ECLUZELLES,28500.0,28136,Écluzelles,281360000B0218,1.420686,48.710126
2018-1059698,2018-11-03,Vente,180000.0,RUE TOURNERIE,77830.0,77354,Pamfou,773540000C0335,2.870111,48.460094
2018-1333790,2018-02-13,Vente,136000.0,RUE GABRIEL PERI,94400.0,94081,Vitry-sur-Seine,940810000I0029,2.400755,48.794376
2018-435330,2018-10-17,Vente,266500.0,IMP DE LA ROSE DES SABLES,33380.0,33555,Marcheprime,33555000AH0291,-0.849185,44.687687
2018-822159,2018-04-20,Vente,219000.0,RUE DES DOMINOTIERS,60110.0,60395,Méru,60395000AK0037,2.140615,49.241562
2018-722541,2018-05-04,Vente,225000.0,LE VERGER,53170.0,53212,Saint-Denis-du-Maine,532120000C0972,-0.527236,47.967045
2018-366882,2018-03-02,Vente,258650.0,RUE FRANCOIS TRUFFAUT,31180.0,31117,Castelmaurou,31117000AE0204,1.537555,43.679475
2018-1089351,2018-05-25,Vente,384100.0,PL MICHEL ANGE,78400.0,78146,Chatou,78146000AB1264,2.163759,48.903724
2018-1213687,2018-09-19,Vente,500000.0,PARC DU PALAIS,86170.0,86281,Saint-Martin-la-Pallu,862810300G0906,0.202564,46.731535
2018-402711,2018-12-13,Vente,169000.0,A MONTAUZET,32400.0,32093,Caumont,320930000C0364,-0.100576,43.684678
2018-1012317,2018-07-05,Vente,463000.0,SUR LES CRETS,74910.0,74235,Saint-Germain-sur-Rhône,742350000B2382,5.825055,46.060862
2018-1081905,2018-01-19,Vente,262000.0,BD ST ANTOINE,78150.0,78158,Le Chesnay-Rocquencourt,78158000AI0671,2.125903,48.816672
2018-752692,2018-08-31,Vente,83000.0,RUE LT FRANCOIS FROMENTIN,56000.0,56260,Vannes,56260000CS0409,-2.767799,47.648726
2018-227343,2018-06-19,Vente,155000.0,LES PALINIERES,19130.0,19195,Saint-Cyprien,191950000A1751,1.349125,45.242695
2018-812420,2018-11-13,Vente,56480.8,SENTIER DE LA MOTTE,59740.0,59062,Beaurieux,590620000B0487,4.132638,50.175422
2018-1224298,2018-09-11,Vente,230000.0,RUE DES ARENES,87000.0,87085,Limoges,87085000DL0144,1.253544,45.829732
2018-57828,2018-01-24,Vente en l'état futur d'achèvement,370000.0,PAS WILSON,6160.0,6004,Antibes,06004000CR0391,,
2018-671742,2018-06-06,Vente,66112.0,DAVAN,47210.0,47241,Saint-Eutrope-de-Born,472410000G0635,0.705721,44.545084
2018-1209900,2018-03-09,Vente,94000.0,ETOURLOUBIER,86700.0,86211,Romagne,862110000F0485,0.301061,46.239835
2018-1280614,2018-09-11,Vente,360000.0,RUE ADOLPHE GUYOT,92270.0,92009,Bois-Colombes,920090000F0026,2.276945,48.918718
2018-937211,2018-04-05,Vente en l'état futur d'achèvement,162000.0,RUE LEON BLUM,69100.0,69266,Villeurbanne,69266000CH0200,4.902211,45.759731
2018-1075337,2018-08-23,Vente en l'état futur d'achèvement,229000.0,RUE DE TORCY,77360.0,77479,Vaires-sur-Marne,77479000AE0095,2.643338,48.866325
2018-223442,2018-03-02,Vente,152000.0,LA CROISETTE,19150.0,19098,Lagarde-Marc-la-Tour,19098000AE0202,1.809219,45.202466
2018-540699,2018-11-15,Vente,200000.0,PINSOT,38580.0,38163,Le Haut-Bréda,38163306AB0340,6.099812,45.354988
2018-656116,2018-03-16,Vente,143000.0,VENTE DES TROIS MARCHAIS,45220.0,45097,Chuelles,450970000H0327,2.952195,47.985547
2018-662362,2018-05-31,Vente,207000.0,FONCAVE,46140.0,46182,Luzech,46182000AC0150,1.266273,44.498058
2018-80402,2018-11-22,Vente,60000.0,RUE DE LA REPUBLIQUE,7000.0,7186,Privas,07186000AP0209,4.597858,44.734805
2018-206283,2018-03-10,Vente,211933.0,RTE DES NORMANDS,17430.0,17216,Lussant,17216000ZK0161,-0.838634,45.937727
2018-284318,2018-09-18,Vente,62000.0,RUE DE LA REPUBLIQUE,25630.0,25526,Sainte-Suzanne,25526000AD0344,6.771488,47.503364
2018-1141117,2018-01-12,Vente,81630.0,A COULYN,82120.0,82163,Saint-Jean-du-Bouzet,82163000AE0185,0.880538,43.9864
2018-460079,2018-12-06,Vente,176758.0,LES MOULIERES,34830.0,34077,Clapiers,34077000CC0080,3.893546,43.653565
2018-304046,2018-03-15,Vente,80000.0,RUE BEAULIEU,27400.0,27375,Louviers,27375000AM0059,1.158847,49.20891
2018-722957,2018-06-29,Vente,48000.0,LA PETITE PIECE,53170.0,53022,La Bazouge-de-Chemeré,530220000C1023,-0.469532,48.007856
2018-1192862,2018-11-29,Vente,300398.6,FIEF DES ROCHAIS,85600.0,85146,Montaigu-Vendée,85146107AD0033,-1.261357,46.96693
2018-605981,2018-10-31,Vente,45000.0,CHE DE LA CIME DU BOURG,43220.0,43163,Riotord,43163000BX0161,4.401869,45.230257
2018-853190,2018-11-26,Vente,89000.0,RUE DU GENERAL LECLERC,62290.0,62617,Nœux-les-Mines,62617000AN0031,2.673965,50.48254
2018-289859,2018-08-16,Vente,81000.0,PICHERES,26600.0,26071,Chanos-Curson,26071000AE0711,4.917059,45.059171
2018-1296719,2018-06-21,Vente,228000.0,RUE DE CHATENAY,92160.0,92002,Antony,920020000R0053,2.293201,48.756
2018-339107,2018-11-28,Vente,87000.0,RUE DU DOCTEUR MAZE,29450.0,29277,Sizun,29277000AB0176,-4.085481,48.407649
2018-305570,2018-01-08,Vente,160000.0,IMP DES PRES,27400.0,27375,Louviers,27375000AB0128,1.178396,49.226385
2018-479723,2018-05-07,Vente,36000.0,PLAN DE CANTAOUSSELS,34290.0,34300,Servian,34300000AW0057,3.32149,43.443449
2018-1239133,2018-09-28,Vente,100000.0,LE BAS DU MARAIS,89240.0,89228,Lindry,892280000C2270,3.42576,47.812726
2018-858799,2018-01-19,Vente,115500.0,RUE DE CAMIERS,62630.0,62318,Étaples,62318000AB0998,1.636323,50.515316
2018-1270055,2018-01-05,Vente,300000.0,PROM SAINT LEUFROY,92150.0,92073,Suresnes,920730000T0261,2.225433,48.868559
2018-738716,2018-08-28,Vente,95000.0,RUE DE MEROUEE,54150.0,54099,Val de Briey,54099342AB0004,5.894171,49.28725
2018-1209369,2018-02-01,Vente,127500.0,RTE DE CLAUNAY,86200.0,86156,Messemé,861560000B0634,0.183662,47.003265
2018-862665,2018-03-22,Vente,360000.0,QUAI DES SALINES,62500.0,62765,Saint-Omer,62765000AD0331,2.261779,50.753556
2018-926209,2018-08-27,Vente,260000.0,CHE DE MONTPELLAS,69009.0,69389,Lyon 9e Arrondissement,69389000CT0013,4.82907,45.800263
2018-83911,2018-12-08,Vente,53270.0,GR GRAND'RUE,7310.0,7012,Arcens,07012000AB0747,4.328549,44.901244
2018-876510,2018-07-03,Vente,210950.0,RTE DES MARTRES D ARTIERE,63720.0,63107,Chavaroux,63107000YC0167,3.264937,45.844458
2018-947858,2018-06-19,Vente,130000.0,RUE JULES CHAUSSE,69630.0,69043,Chaponost,69043000AN0189,4.744067,45.709554
2018-1188329,2018-04-19,Vente,60000.0,RUE DES SPORTS,85430.0,85008,Aubigny-Les Clouzeaux,85008069AE0011,-1.50949,46.629608
2018-704400,2018-02-20,Vente,48977.0,LE BALIGAN,50260.0,50579,Sottevast,505790000A1245,-1.59327,49.528236
2018-829877,2018-11-09,Vente,52000.0,RUE DU COIZEL,60400.0,60471,Noyon,60471000AT0030,3.008689,49.585024
2018-1413099,2018-12-19,Vente,320000.0,RUE ERNEST RENAN,75015.0,75115,Paris 15e Arrondissement,75115000CF0046,2.309545,48.843419
2018-277477,2018-09-21,Vente,65000.0,ROUGEMONTOT,25680.0,25505,Rougemont,25505000AK0257,6.357805,47.482855
2018-944147,2018-11-20,Vente,528320.0,AZIEU,69740.0,69277,Genas,69277000AM0168,5.019723,45.743634
2018-1346129,2018-03-30,Vente,230300.0,RUE JEAN D'ESTIENNE D'ORVES,94170.0,94058,Le Perreux-sur-Marne,94058000AB0184,2.498407,48.840543
2018-1333864,2018-02-22,Vente en l'état futur d'achèvement,282000.0,AV JEAN JAURES,94250.0,94037,Gentilly,940370000K0147,2.350483,48.813981
2018-562165,2018-10-31,Vente,150000.0,RUE REGARD,39000.0,39300,Lons-le-Saunier,39300000AB0799,5.550918,46.675048
2018-314989,2018-12-14,Vente,173000.0,RTE DE BOIS NORMAND,28270.0,28322,Rueil-la-Gadelière,28322000AB0247,0.969155,48.711527
2018-376695,2018-11-28,Vente en l'état futur d'achèvement,241000.0,RUE FRANCOIS LONGAUD,31400.0,31555,Toulouse,31555813AD0076,1.441632,43.58804
2018-564994,2018-02-27,Vente,200000.0,LAPLAINE,40310.0,40124,Herré,401240000B0085,-0.00219,44.018766
2018-1077343,2018-10-19,Vente en l'état futur d'achèvement,161160.0,LES COUDRAIS,77600.0,77058,Bussy-Saint-Georges,77058000ZI0175,2.724421,48.834811
2018-840905,2018-12-03,Vente,110000.0,RUE DE LA BISSONNIERE,61260.0,61484,Val-au-Perche,61484356AD0029,0.686391,48.269145
2018-617606,2018-12-28,Vente,115500.0,RUE DE MORLAIX,44800.0,44162,Saint-Herblain,44162000CL0050,-1.617724,47.212412
2018-850923,2018-03-13,Vente,160000.0,RUE DU PARADIS,62290.0,62617,Nœux-les-Mines,62617000AI0715,2.661478,50.477372
2018-225846,2018-12-27,Vente,34500.0,MALLEVIALLE,19470.0,19118,Le Lonzac,191180000H0610,1.681754,45.464412
2018-951458,2018-03-01,Vente,125000.0,LES COTES,69210.0,69231,Saint-Pierre-la-Palud,69231000AB0952,4.605783,45.79123
2018-877563,2018-10-26,Vente,170000.0,LE CLUZE,63770.0,63004,Les Ancizes-Comps,63004000AO0308,2.828459,45.914066
2018-758856,2018-08-01,Vente,149000.0,RUE DES PLAGES,56270.0,56162,Ploemeur,56162000DP0269,-3.433961,47.727983
2018-910814,2018-07-27,Vente,173800.0,RUE DU VALLESPIR,66180.0,66227,Villeneuve-de-la-Raho,66227000AM0047,2.919643,42.632343
2018-1254282,2018-12-13,Vente,165000.0,ALL BOISSY D ANGLAS,91000.0,91228,Évry-Courcouronnes,91228000AZ0106,2.429426,48.619678
2018-1097811,2018-07-30,Vente,155000.0,RES DU 44 RUE DESIRE CLEMENT,78700.0,78172,Conflans-Sainte-Honorine,78172000AR0517,2.110171,49.000442
2018-305646,2018-01-11,Vente,171650.0,RUE DES TROIS EPINES,27310.0,27133,Caumont,271330000C0178,0.895804,49.367207
2018-1142997,2018-01-19,Vente,530000.0,AV DES RUBIS,83520.0,83107,Roquebrune-sur-Argens,83107000CM0099,6.635438,43.505415
2018-304721,2018-07-28,Vente,143000.0,CHE DE BOISSEY,27400.0,27127,Canappeville,271270000A0068,1.121519,49.15629
2018-286666,2018-03-12,Vente,235000.0,CANARD ET RIOUSSET,26300.0,26088,Chatuzange-le-Goubet,26088000AE0400,5.100463,45.035123
2018-817147,2018-04-09,Vente,175000.0,RUE DES DEPORTES,59154.0,59160,Crespin,59160000AE0464,3.662982,50.41304
2018-1059770,2018-11-19,Vente,210000.0,LE TROU DES DAMES,77820.0,77100,Le Châtelet-en-Brie,77100000AD0139,2.80287,48.496982
2018-1148476,2018-08-30,Vente en l'état futur d'achèvement,62000.0,PORT GRIMAUD,83310.0,83068,Grimaud,83068000BA0615,6.573828,43.270167
2018-432069,2018-07-23,Vente,330000.0,RUE THOMAS LUSSAN,33120.0,33009,Arcachon,33009000AM0803,-1.14874,44.656937
2018-355564,2018-11-26,Vente,268000.0,BOURGNOLLE,30122.0,30198,Les Plantiers,301980000C0510,3.754734,44.126899
2018-507272,2018-06-29,Vente,547100.0,CHE DE LA BASSE NEGRAIS,35800.0,35256,Saint-Briac-sur-Mer,35256000AD0334,-2.121711,48.626245
2018-891454,2018-02-28,Vente,184200.0,AV DU PDT J F KENNEDY,64200.0,64122,Biarritz,64122000BO0127,-1.555742,43.471912
2018-776900,2018-04-10,Vente,550000.0,RUE DOUDIN,59800.0,59350,Lille,59350000LO0012,3.059822,50.640485
2018-1360104,2018-08-31,Vente,290000.0,RUE DE L YSIEUX,95270.0,95149,Chaumontel,95149000AA0251,2.422072,49.129651
2018-427384,2018-04-04,Vente,81000.0,LANQUETTE,33770.0,33498,Salles,33498000AK0186,,
2018-1168109,2018-03-29,Vente,132666.66,AV DES HEURES CLAIRES,83270.0,83112,Saint-Cyr-sur-Mer,83112000CN0053,5.678569,43.180461
2018-468175,2018-08-30,Vente,90870.0,BELLE FEUILLE,34700.0,34268,Saint-Jean-de-la-Blaquière,342680000A0682,3.40797,43.721997
2018-284544,2018-10-10,Vente,50000.0,SOUS FAYS,25260.0,25224,Étouvans,252240000C1384,6.725587,47.467651
2018-1008653,2018-04-27,Vente,210000.0,MOUSSY,74930.0,74220,Reignier-Ésery,742200000G1497,6.241446,46.124397
2018-1140841,2018-10-23,Vente,240000.0,ST CAPRAIS,82110.0,82021,Bouloc-en-Quercy,820210000B0678,1.145869,44.302478
2018-91292,2018-06-25,Vente,60000.0,LA MOLE,9100.0,9225,Pamiers,09225000AO0417,1.628095,43.110638
2018-747015,2018-01-15,Vente,108000.0,LA GRANDE LOUISE,56350.0,56223,Saint-Jean-la-Poterie,56223000AP0284,-2.123502,47.634655
2018-1069319,2018-01-26,Vente,295000.0,RUE DE LA ROCHELLE,77230.0,77241,Juilly,772410000B0843,2.702869,49.010167
2018-423361,2018-12-20,Vente,320000.0,CHE GASTON,33140.0,33550,Villenave-d'Ornon,33550000CO0488,,
2018-53703,2018-08-28,Vente,537500.0,AV DU GENERAL DE GAULLE,6240.0,6012,Beausoleil,06012000AE0201,7.427745,43.744442
2018-807541,2018-06-01,Vente,375000.0,RUE PAUL ALLEGOT,59310.0,59004,Aix-en-Pévèle,59004000ZC0142,3.309987,50.501979
2018-100060,2018-09-03,Vente,25620.0,LES VARENNES,10140.0,10401,Vendeuvre-sur-Barse,10401000AI0600,4.456435,48.232887
2018-393983,2018-04-26,Vente,95000.0,LASLANES,31220.0,31153,Couladère,311530000A0533,1.09077,43.199759
2018-275733,2018-06-29,Vente,101700.0,CITE PARC DES CHAPRAIS,25000.0,25056,Besançon,25056000BP0213,6.036516,47.25373
2018-1365702,2018-09-10,Vente en l'état futur d'achèvement,240000.0,RUE JEAN MERMOZ,95120.0,95219,Ermont,95219000AD0741,2.262386,48.989054
2018-424484,2018-01-11,Vente,55000.0,PLACES DE CAVERNE NORD,33450.0,33433,Saint-Loubès,334330000C0099,-0.432864,44.923276
2018-1004453,2018-10-10,Vente,109500.0,LES GRANGETTES,73250.0,73247,Saint-Jean-de-la-Porte,73247000ZW0320,6.132311,45.566736
2018-640610,2018-12-06,Vente,307500.0,BD OCEANIDES,44380.0,44132,Pornichet,44132000AB0225,-2.355784,47.272816
2018-1098644,2018-09-26,Vente,235450.0,RUE DU CLOS DES HAIES,78112.0,78551,Saint-Germain-en-Laye,785512510B0256,2.066463,48.888394
2018-251473,2018-10-24,Vente,336500.0,MONTMUSSON,22100.0,22380,Trévron,223800000B1127,-2.054674,48.40024
2018-709773,2018-06-05,Vente,45000.0,GR GRAND RUE,51230.0,51165,Connantre,51165000AE0195,3.915453,48.722765
2018-87791,2018-01-26,Vente,70200.0,RUE DES CABRITS,8210.0,8055,Beaumont-en-Argonne,08055000AB0157,5.057669,49.539474
2018-1064705,2018-11-21,Vente,314000.0,RUE DE LA CROISSETTE,77510.0,77162,Doue,771620000F0939,3.161642,48.866863
2018-356802,2018-12-11,Vente,472000.0,TERRE LONGUE,30128.0,30125,Garons,30125000AC0294,4.426126,43.76398
2018-389505,2018-02-20,Vente terrain à bâtir,72300.0,NAUDY,31180.0,31273,Lapeyrouse-Fossat,312730000B3460,1.519041,43.694279
2018-730415,2018-04-05,Vente,100000.0,RLE ROBEE,54500.0,54547,Vandœuvre-lès-Nancy,54547000AB0092,6.171564,48.657147
2018-769839,2018-03-17,Vente,50000.0,LES OURGNIAUX,58340.0,58178,Montigny-sur-Canne,581780000A0561,3.675885,46.964528
2018-295763,2018-09-26,Vente,195200.0,RUE DU LOT DES REYMONDS,26220.0,26114,Dieulefit,26114000AO0170,5.072126,44.520919
2018-246964,2018-10-05,Vente,80000.0,LE COURTIL,22410.0,22232,Plourhan,222320000B0919,-2.88727,48.64384
2018-891732,2018-03-13,Vente,100600.0,ESPELDOY,64470.0,64222,Etchebar,642220000A0517,-0.883335,43.07894
2018-818337,2018-06-27,Vente,46000.0,RUE PERCEPAIN,59300.0,59606,Valenciennes,59606000AR0841,3.523895,50.362258
2018-1140759,2018-11-26,Vente,383000.0,LACASSAIGNE,82220.0,82189,Vazerac,82189000WE0023,1.266583,44.216441
2018-810166,2018-03-16,Vente,231000.0,LE DEFRICHE DU GRAND BOIS,59600.0,59392,Maubeuge,59392000AN0229,3.963471,50.301684
2018-1222393,2018-06-11,Vente,110000.0,PERAGOU,87470.0,87117,Peyrat-le-Château,871170000B0698,1.776003,45.823488
2018-136112,2018-09-17,Vente,32000.0,AV DE MAZARGUES,13008.0,13208,Marseille 8e Arrondissement,132088430K0034,5.388184,43.268907
2018-528389,2018-08-30,Vente,74700.0,LES GRAVOIS,37130.0,37232,Coteaux-sur-Loire,37232000ZB0054,0.295062,47.272758
2018-668676,2018-12-06,Vente,80000.0,RUE LAFONTAINE,47520.0,47201,Le Passage,47201000AD0311,0.596921,44.190722
2018-136146,2018-10-08,Vente,185000.0,BD DU REDON,13009.0,13209,Marseille 9e Arrondissement,132098500D0238,5.42612,43.251503
2018-419077,2018-07-23,Vente,125700.0,RUE BECK,33800.0,33063,Bordeaux,33063000BW0071,-0.55214,44.822827
2018-219032,2018-09-05,Vente,90000.0,RUE DES ARMURIERS,18000.0,18033,Bourges,18033000IO0375,2.395072,47.082564
2018-1226316,2018-12-14,Vente,97500.0,CHAMBORET,87700.0,87001,Aixe-sur-Vienne,87001000AX0231,1.127867,45.792738
2018-1301464,2018-12-11,Vente,245000.0,AV JEAN MONNET,92160.0,92002,Antony,92002000BC0163,2.298345,48.746896
2018-986104,2018-01-31,Vente,112000.0,RUE DU VIEUX BOURG,72330.0,72051,Cérans-Foulletourte,72051000AB0242,0.074138,47.82716
2018-1069745,2018-02-05,Vente,262000.0,RUE DU PRE D OULEVE,77165.0,77437,Saint-Soupplets,77437000ZI0116,,
2018-1003542,2018-10-10,Vente en l'état futur d'achèvement,236500.0,,,73031,Bassens,730310000B2482,5.943139,45.570328
2018-1137346,2018-01-04,Vente,250000.0,A CALOURET,82200.0,82099,Lizac,820990000D0430,1.17188,44.126563
2018-1351693,2018-03-26,Vente,165000.0,RUE DE LA LIBERATION,95450.0,95170,Condécourt,951700000A1031,1.943144,49.041496
2018-989305,2018-09-21,Vente,217000.0,LE CHAMP DU CORMIER,72600.0,72324,Saint-Vincent-des-Prés,72324000ZL0034,0.354724,48.301386
2018-269766,2018-12-07,Vente,230000.0,BOS DE MATAS,24610.0,24272,Minzac,242720000E2542,0.024338,44.949096
2018-1131796,2018-09-17,Vente en l'état futur d'achèvement,79000.0,RUE DE LA POUDRIERE,81000.0,81004,Albi,81004000BY0243,2.133545,43.917996
2018-1363902,2018-05-29,Vente,175000.0,RES DES HAUTS ST NICOLAS,95130.0,95491,Le Plessis-Bouchard,95491000AH0681,2.240243,49.000079
2018-756241,2018-02-20,Vente,40000.0,KERGAVALAN,56530.0,56185,Quéven,56185000BT0169,-3.387995,47.774731
2018-353007,2018-08-23,Vente,389000.0,GROS CANABIER,30230.0,30047,Bouillargues,30047000ZL0113,4.45894,43.786744
2018-224380,2018-06-27,Vente,60050.0,PUY PERET,19250.0,19071,Davignac,190710000D0050,2.056889,45.475114
2018-88426,2018-09-07,Vente,122000.0,RUE DES GREVES,8140.0,8053,Bazeilles,080530000X0465,4.985267,49.67429
2018-198888,2018-10-15,Vente,370000.0,PL VERDUN,17000.0,17300,La Rochelle,17300000AD0088,-1.153925,46.163197
2018-864172,2018-09-24,Vente,81400.0,AV LEON BLUM,62510.0,62040,Arques,620400000F1149,2.295191,50.735268
2018-239428,2018-04-27,Vente,87500.0,LA GEOLIERE,21700.0,21542,Saint-Bernard,21542000ZC0024,5.025893,47.158421
2018-136664,2018-10-12,Vente,128000.0,AV DE LA PAIX,13600.0,13028,La Ciotat,13028000AS0133,5.60832,43.180869
2018-499920,2018-08-03,Vente,150000.0,BD DU MAL LECLERC,35300.0,35115,Fougères,35115000AI0840,-1.200654,48.354281
2018-1109428,2018-04-03,Vente,76000.0,ALL DES VOLUBILIS,79000.0,79191,Niort,79191000CW0048,-0.440133,46.320662
2018-999466,2018-12-22,Vente en l'état futur d'achèvement,158300.0,QUAI DES ALLOBROGES,73000.0,73065,Chambéry,73065000BZ0391,5.910831,45.57852
2018-1002489,2018-07-26,Vente,144000.0,SOUS LES BURNEYS,73160.0,73092,Corbel,730920000B0745,5.831396,45.436632
2018-190137,2018-08-31,Vente,50000.0,FONTAINE DU GUENAUD,16260.0,16068,Cellefrouin,160680000G0391,0.4227,45.892966
2018-572660,2018-05-03,Vente,116300.0,PLE GUILLAUME SANCHE,40260.0,40311,Taller,403110000F0102,-1.072176,43.872131
2018-730884,2018-04-20,Vente,107900.0,RUE DE LA LIBERATION,54760.0,54188,Faulx,54188000AB0052,6.199276,48.791792
2018-700063,2018-06-01,Vente,170000.0,RUE DE L ALMA,50100.0,50129,Cherbourg-en-Cotentin,50129000AV0032,-1.626139,49.63771
2018-36861,2018-04-27,Vente,25000.0,RABASSE,5700.0,5166,Serres,051660000A0312,5.719074,44.42632
2018-750238,2018-05-22,Vente,114500.0,RUE DU SAINDO,56450.0,56251,Theix-Noyalo,56251000XB0131,-2.691828,47.656981
2018-639194,2018-10-09,Vente,108000.0,LA CATEE,44460.0,44057,Fégréac,44057000XR0300,-2.022313,47.567541
2018-830968,2018-02-27,Vente,417770.0,RUE DES VIGNES,60128.0,60432,Mortefontaine,60432000ZC0026,2.597669,49.114082
2018-1365490,2018-09-06,Vente,240000.0,RUE RAOUL DAUTRY,95120.0,95219,Ermont,95219000AK0668,2.260592,48.983555
2018-1037865,2018-06-21,Vente,105000.0,LE VILLAGE,76690.0,76247,Esteville,76247000ZC0387,1.215355,49.604435
2018-895107,2018-08-31,Vente,545220.0,RTE DEPARTEMENTALE N 3,64200.0,64038,Arcangues,64038000BD0045,-1.511565,43.424246
2018-596270,2018-11-05,Vente,110000.0,RUE ALEXANDRE SEON,42140.0,42059,Chazelles-sur-Lyon,42059000AC0699,4.390381,45.638147
2018-888580,2018-11-30,Vente,519986.88,AV DU GENERAL DE GAULLE,64110.0,64373,Mazères-Lezons,64373000AB0296,-0.358877,43.281409
2018-732756,2018-07-25,Vente,78000.0,RUE JEANNE D ARC,54000.0,54395,Nancy,54395000BV0670,6.176117,48.679943
2018-564909,2018-02-26,Vente,97000.0,AV CAMILLE CLAUDEL,40280.0,40281,Saint-Pierre-du-Mont,40281000AB0885,-0.523943,43.881068
2018-554317,2018-10-09,Vente,151000.0,VOIE ROMAINE,38780.0,38480,Septème,38480000AE0297,4.999587,45.564629
2018-818283,2018-07-02,Vente,59000.0,RUE DE LA DIGUE RESID RUBENS,59300.0,59606,Valenciennes,596060000P0304,3.517639,50.353687
2018-174702,2018-09-27,Vente,177000.0,LA GRESLEBINIERE,14140.0,14368,Lisores,143680000B0234,0.216198,48.971725
2018-748496,2018-03-13,Vente en l'état futur d'achèvement,176500.0,ER TORADRE,56450.0,56251,Theix-Noyalo,56251000AM0318,-2.634647,47.625962
2018-1317540,2018-09-18,Vente en l'état futur d'achèvement,261308.0,AV P VAILLANT COUTURIER,93420.0,93078,Villepinte,93078000BP0170,2.532927,48.954882
2018-566491,2018-06-20,Vente,61399.05,LES AGREOU,40110.0,40330,Villenave,403300000A0072,-0.837821,43.983566
2018-1102572,2018-08-16,Vente,239850.0,LE BOUT GUYOU,78440.0,78317,Jambville,783170000B0688,1.84739,49.053184
2018-1188154,2018-04-06,Vente,30060.0,LE TAIL,85110.0,85220,Saint-Germain-de-Prinçay,85220000AB0805,-1.0255,46.719798
2018-660677,2018-01-11,Vente,30000.0,PONATUS,46500.0,46128,Gramat,461280000H0942,1.688861,44.762967
2018-38078,2018-07-09,Vente,70000.0,LE VILLAGE DE CHAUFFAYER,5800.0,5039,Aubessagne,050390000D0338,6.008022,44.752772
2018-689957,2018-11-22,Vente,250000.0,RUE ALPHONSE CAILLAUD,49400.0,49328,Saumur,49328016AC0516,-0.087327,47.251258
2018-1011278,2018-07-11,Vente,310000.0,IMP DES GENTIANES,74930.0,74220,Reignier-Ésery,742200000F2205,6.277758,46.13635
2018-1414698,2018-05-16,Vente,245000.0,AV MOZART,75016.0,75116,Paris 16e Arrondissement,75116000BV0012,2.26829,48.851887
2018-383237,2018-07-09,Vente en l'état futur d'achèvement,185900.0,BOURGADE,31300.0,31555,Toulouse,31555845AR0098,1.367414,43.595108
2018-922844,2018-04-25,Vente,198000.0,GRANDE RUE DE SAINT CLAIR,69300.0,69034,Caluire-et-Cuire,69034000AX0314,4.859918,45.790897
2018-571135,2018-02-12,Vente,100000.0,LE BOURG,40170.0,40266,Saint-Julien-en-Born,40266000AB1719,-1.226255,44.064357
2018-112430,2018-12-21,Vente,35000.0,GAMARO,11430.0,11170,Gruissan,11170000WE0005,3.071136,43.089883
2018-1328886,2018-06-13,Vente,250700.0,RUE GUY MOQUET,94380.0,94011,Bonneuil-sur-Marne,940110000Q0276,2.477683,48.766805
2018-641275,2018-09-28,Adjudication,54000.0,L ENFERNEUF,44550.0,44103,Montoir-de-Bretagne,44103000ZI0122,-2.124251,47.330742
2018-149948,2018-10-24,Vente,260400.0,MOULIN NEUF,13410.0,13050,Lambesc,13050000AH0209,5.271304,43.653584
2018-82824,2018-08-03,Vente,74000.0,AV DE STALINGRAD,7100.0,7010,Annonay,07010000AM0210,4.663439,45.239555
2018-320611,2018-11-16,Vente,370000.0,KERBASCOL,29120.0,29252,Saint-Jean-Trolimon,29252000ZD0144,-4.316769,47.878136
2018-149363,2018-09-19,Vente,240000.0,BD DES BLAZOTS,13300.0,13103,Salon-de-Provence,13103000BK0527,5.087916,43.64475
2018-730472,2018-04-24,Vente,80000.0,RUE DE LA MADELEINE,54610.0,54059,Belleau,54059000AH0159,6.182968,48.83041
2018-569041,2018-10-22,Vente,135000.0,RUE DU PEGLE,40000.0,40192,Mont-de-Marsan,40192000AW1042,-0.520814,43.896495
2018-668787,2018-12-18,Vente,200100.0,RUE DE LA TUILERIE,47260.0,47111,Granges-sur-Lot,47111000ZA0246,0.460933,44.377317
2018-1007461,2018-04-10,Vente,347550.0,RUE DE LA LIBERATION,74000.0,74010,Annecy,74010000EI0143,6.124719,45.90783
2018-153310,2018-04-17,Vente,125500.0,LES VIGNETTES,13127.0,13117,Vitrolles,13117000BI0018,5.230041,43.461414
2018-902229,2018-10-17,Vente,22722.0,ESTAYS,65500.0,65035,Artagnan,650350000C0613,0.072843,43.397033
2018-907495,2018-04-09,Vente,72000.0,RUE DES NYMPHES,66380.0,66141,Pia,66141000AN0519,,
2018-849362,2018-11-30,Vente,151362.0,RUE DU GENERAL LECLERC,62660.0,62126,Beuvry,62126000AY0158,2.69336,50.515334
2018-344472,2018-03-22,Echange,38920.0,CAPANNA,20259.0,2B190,Olmi-Cappella,2B1900000C0181,9.058738,42.554996
2018-933793,2018-11-12,Vente en l'état futur d'achèvement,340000.0,RUE LIEUTENANT COLONEL GIRARD,69007.0,69387,Lyon 7e Arrondissement,69387000BR0013,4.82772,45.738886
2018-658789,2018-08-24,Vente,163000.0,IMP DES TEMPLES,45300.0,45253,Pithiviers-le-Vieil,45253000AL0304,2.204419,48.162834
2018-83829,2018-11-23,Vente,167000.0,MIALARET,7410.0,7014,Arlebosc,070140000A0854,4.619789,45.051858
2018-1356966,2018-12-20,Vente,140000.0,AV DU HAZAY,95800.0,95127,Cergy,95127000EI0097,2.014276,49.048011
2018-407293,2018-05-17,Vente,88400.0,QUAI DES CHARTRONS,33300.0,33063,Bordeaux,33063000RH0194,-0.566857,44.855811
2018-753964,2018-10-31,Vente en l'état futur d'achèvement,186800.0,RUE DU LAVOIR,56890.0,56206,Saint-Avé,56206000BD0035,-2.734547,47.690865
2018-721248,2018-11-12,Vente,135000.0,PRAIRIE DE JAGEE,52220.0,52088,Ceffonds,52088000AA0055,4.750043,48.482128
2018-275574,2018-05-29,Vente,40000.0,RUE DE L INDUSTRIE,25660.0,25532,Saône,25532000AM0118,6.098808,47.21086
2018-1359086,2018-06-13,Vente,80000.0,GR GRANDE RUE,95270.0,95026,Asnières-sur-Oise,95026000AC0398,2.361748,49.13387
2018-438283,2018-12-20,Vente,214440.0,RUE CALVIMONT,33100.0,33063,Bordeaux,33063000BD0179,-0.558034,44.839954
2018-612128,2018-06-22,Vente,191000.0,RUE JENNER,44100.0,44109,Nantes,44109000IO0116,-1.576879,47.208846
2018-327094,2018-07-16,Vente,526500.0,AV BARON LACROSSE,29850.0,29061,Gouesnou,29061000AY0327,-4.453039,48.432883
2018-1134262,2018-04-27,Vente,80000.0,RUE MOLIERE,81100.0,81065,Castres,81065000DS0104,2.251362,43.593525
2018-91732,2018-07-18,Vente,82674.0,PLAINE D ENHAUT ET CARRERA,9160.0,9041,La Bastide-du-Salat,090410000B0849,0.994752,43.050121
2018-374932,2018-10-10,Vente,80000.0,QUAI DE TOUNIS,31000.0,31555,Toulouse,31555817AB0100,1.44077,43.597113
2018-536082,2018-01-16,Vente,180000.0,RUE DE LA PIERRE DU PERRON,38560.0,38200,Jarrie,38200000AV0265,5.752311,45.105465
2018-1015960,2018-11-21,Vente,160000.0,DESSOUS LA VILLE,74370.0,74019,Argonay,74019000AH1764,6.139614,45.94237
2018-176933,2018-07-12,Vente,115000.0,IMP DU PETIT CASINO,14600.0,14333,Honfleur,14333000AH0359,,
2018-845017,2018-12-12,Vente en l'état futur d'achèvement,153600.0,AV PAUL MICHONNEAU,62000.0,62041,Arras,62041000AE0024,2.783389,50.294157
2018-769629,2018-01-04,Vente,68000.0,RUE DES GROSSES TERRES,58320.0,58124,Germigny-sur-Loire,58124000ZA0066,3.052281,47.104851
2018-567582,2018-07-27,Vente,26000.0,L EGLISE,40700.0,40069,Castaignos-Souslens,400690000B0572,-0.652876,43.584957
2018-808886,2018-10-24,Vente,105325.2,LES CHEMINETS,59552.0,59329,Lambres-lez-Douai,59329000ZE0160,3.037595,50.347624
2018-36863,2018-04-27,Vente,103740.0,PRA PEYRON,5340.0,5101,Vallouise-Pelvoux,051011750C0224,6.494371,44.847107
2018-1382258,2018-07-31,Vente,243000.0,RUE DU CENTAURE,97419.0,97408,La Possession,97408000AN1532,55.335938,-20.939957
2018-1234089,2018-07-10,Vente,227000.0,LE QUARRO,88650.0,88423,Saint-Léonard,88423000AB0189,6.961531,48.220078
2018-1051879,2018-08-17,Vente,141500.0,RTE DE VEULES LES ROSES,76760.0,76668,Saussay,766680000A0358,0.914493,49.633341
2018-437731,2018-12-12,Vente,190000.0,RUE DE LA CAMINASSE,33210.0,33533,Toulenne,335330000B3364,-0.270808,44.558738
2018-439545,2018-02-23,Vente,215000.0,RUE DE LA CASSADOTE,33450.0,33207,Izon,33207000AZ0264,-0.334442,44.918392
2018-659256,2018-12-19,Vente,35000.0,LA MONTAGNE,45340.0,45030,Beaune-la-Rolande,45030000AK0357,2.435704,48.06605
2018-277778,2018-10-10,Vente,112000.0,RUE DE LA REPUBLIQUE,25000.0,25056,Besançon,25056000AD0159,6.025667,47.239404
2018-615886,2018-11-05,Vente,175000.0,AV DU KURUN,44800.0,44162,Saint-Herblain,44162000CK0165,-1.606521,47.216782
2018-863734,2018-07-30,Vente,40000.0,PL BELLE ROZE,62610.0,62038,Ardres,62038000AO0353,1.979037,50.854266
2018-1141163,2018-01-29,Vente,120000.0,MARTICOS,82500.0,82093,Larrazet,820930000A1170,1.082888,43.938708
2018-391675,2018-10-03,Vente,190500.0,AV BARTHELEMY SALETTES MANSET,31320.0,31113,Castanet-Tolosan,31113000CD0102,1.502886,43.511919
2018-258952,2018-02-16,Vente,128000.0,GORCE,23000.0,23193,Sainte-Feyre,23193000ZP0071,1.919382,46.172643
2018-821643,2018-03-05,Vente,115811.1,PRAIRIE DE LA CHAPELLE,60650.0,60333,Lachapelle-aux-Pots,603330000E0014,1.897633,49.441442
2018-680275,2018-01-17,Vente,42900.0,LE GRAND MOULIN,49170.0,49298,Saint-Léger-de-Linières,49298000ZC0450,-0.705093,47.462058
2018-769769,2018-03-15,Vente,199221.0,LES TERRES NOIRES,58370.0,58309,Villapourçon,583090000D0032,3.969084,46.917867
2018-1000242,2018-01-23,Vente,93000.0,LE BOURG EVESCAL,73250.0,73247,Saint-Jean-de-la-Porte,732470000H1242,6.139312,45.562877
2018-167772,2018-12-27,Vente,155000.0,RUE DES ACACIAS,14540.0,14538,Castine-en-Plaine,14538000AC0274,-0.325936,49.097592
2018-440760,2018-05-25,Vente,195000.0,LA BELLOTTE,33390.0,33100,Cars,331000000C0613,-0.612223,45.117546
2018-539410,2018-08-27,Vente,465500.0,LOT PRE NOVEL,38420.0,38538,Le Versoud,38538000AL0126,5.866089,45.220804
2018-810121,2018-02-19,Vente,160000.0,ALL DU BOIS DES LANIERES,59570.0,59357,La Longueville,593570000A0858,3.901829,50.327336
2018-80822,2018-12-18,Vente,164000.0,PALHIERES,7140.0,7100,Gravières,071000000C0252,4.092945,44.406409
2018-730545,2018-03-21,Vente,35496.3,BAS DES FONTAINES,54670.0,54338,Malleloy,543380000B0675,6.171496,48.795923
2018-392385,2018-12-28,Vente,370000.0,EMBAOUR,31290.0,31582,Villefranche-de-Lauragais,315820000A1767,1.733483,43.390257
2018-269876,2018-12-28,Vente,267000.0,RUE DES NOISETIERS,24440.0,24028,Beaumontois en Périgord,240280000C1106,0.777168,44.758552
2018-756001,2018-01-11,Vente,170000.0,RUE DU SOUVENIR,56700.0,56094,Kervignac,56094000AB0166,-3.237807,47.766473
2018-438214,2018-12-31,Vente en l'état futur d'achèvement,388600.0,QUAI DE QUEYRIES,33100.0,33063,Bordeaux,33063000AZ0089,-0.55929,44.850415
2018-938128,2018-04-25,Vente,40000.0,CRS EMILE ZOLA,69100.0,69266,Villeurbanne,69266000BS0137,4.891303,45.767039
2018-514944,2018-12-29,Vente,120900.0,LA PETITE GARENNE,36100.0,36088,Issoudun,36088000ZW0093,1.977038,46.963429
2018-799638,2018-12-26,Vente,221000.0,RUE MARCEAU,59420.0,59421,Mouvaux,59421000AI0992,3.136107,50.699949
2018-951405,2018-03-06,Vente,155000.0,LES CORDES,69210.0,69171,Sain-Bel,691710000U2625,4.603151,45.81681
2018-1329805,2018-07-06,Vente,35000.0,RUE DES BORDEAUX,94220.0,94018,Charenton-le-Pont,940180000K0250,2.409608,48.821257
2018-105424,2018-11-14,Echange,190000.0,CANTALOUP,11290.0,11005,Alairac,110050000A0147,2.218638,43.190397
2018-846749,2018-05-02,Vente,55000.0,RUE DU 11 NOVEMBRE,62400.0,62310,Essars,62310000AE0025,2.668824,50.549534
2018-1321602,2018-08-17,Vente,520000.0,BD DU MIDI,93340.0,93062,Le Raincy,93062000AE0384,2.522064,48.89356
2018-899473,2018-11-30,Vente,460000.0,RUE SAINT JACQUES,64500.0,64483,Saint-Jean-de-Luz,64483000BD0770,-1.661611,43.389302
2018-727257,2018-06-29,Vente,155795.0,LE CLOS DU HU,53120.0,53270,Vieuvy,532700000B0237,-0.880509,48.437247
2018-802580,2018-09-24,Vente,250000.0,RUE DU BANC VERT,59640.0,59183,Dunkerque,59183460AN0622,2.355926,51.020569
2018-1104744,2018-03-30,Vente,75000.0,RES LA PETITE MAULDRE,78650.0,78062,Beynes,78062000ZK0362,1.87911,48.850157
2018-1428649,2018-07-10,Vente,190000.0,RUE DE L OURCQ,75019.0,75119,Paris 19e Arrondissement,75119000AL0050,2.37827,48.892511
2018-627902,2018-11-14,Vente,105000.0,FAY,44470.0,44026,Carquefou,44026000ZS0212,-1.509165,47.317666
2018-1045035,2018-09-28,Vente,370000.0,BD FRANCOIS 1ER,76600.0,76351,Le Havre,76351000IH0003,0.099078,49.493029
2018-1175928,2018-05-30,Vente,210000.0,FG SAINT GEORGES,84350.0,84039,Courthézon,84039000AS0069,,
2018-65287,2018-04-05,Vente,55000.0,CHE DE LA MADELEINE,6130.0,6069,Grasse,06069000CD0008,6.933512,43.657005
2018-1421368,2018-12-18,Vente,424301.0,RUE LEGENDRE,75017.0,75117,Paris 17e Arrondissement,75117000CS0068,2.320735,48.888135
2018-1049635,2018-02-14,Vente,116000.0,GR GRAND RUE DE NORMANDIE,76660.0,76553,Sainte-Agathe-d'Aliermont,765530000B0294,1.329323,49.826583
2018-1340528,2018-02-08,Vente,142200.0,RUE D'AQUITAINE,94450.0,94044,Limeil-Brévannes,94044000AP0450,2.478752,48.747519
2018-268808,2018-07-28,Vente,168000.0,ROUSSELAUD,24610.0,24292,Montpeyroux,24292000AK0206,0.064503,44.918379
2018-864580,2018-11-14,Vente,340000.0,LA MOTTE COCQUEREL,62890.0,62155,Bonningues-lès-Ardres,621550000D0580,2.005868,50.787022
2018-227505,2018-07-26,Vente,70000.0,RUE FENELON,19100.0,19031,Brive-la-Gaillarde,19031000AR0056,1.509018,45.159265
2018-269886,2018-12-21,Vente,80000.0,POULVERE,24240.0,24274,Monbazillac,242740000A0846,0.492874,44.807819
2018-1221052,2018-04-24,Vente,201300.0,AV EMILE LABUSSIERE,87100.0,87085,Limoges,87085000BE0131,1.249795,45.844265
2018-1136774,2018-11-13,Vente,220000.0,MONDESIR,81540.0,81288,Sorèze,812880000C1291,2.047857,43.457324
2018-1140268,2018-10-26,Vente,35000.0,LA REUFFETTES,82230.0,82176,La Salvetat-Belmontet,82176000WB0283,1.493368,43.952301
2018-630307,2018-02-01,Vente,136000.0,AV DE MINDIN,44250.0,44154,Saint-Brevin-les-Pins,44154000AE0154,-2.164961,47.248335
2018-362836,2018-02-20,Vente,350000.0,LA BECARASSE,30340.0,30223,Rousson,30223000AY0115,4.183714,44.198648
2018-451560,2018-04-27,Vente,83750.0,RUE DE LA VALSIERE,34790.0,34116,Grabels,34116000AC0004,3.828983,43.647706
2018-185900,2018-07-17,Vente,65000.0,VGE LES FAYARDS,16400.0,16113,La Couronne,16113000AX0099,0.104959,45.606973
2018-968917,2018-02-09,Vente,106000.0,RUE DU MOULIN A VENT,71210.0,71310,Montchanin,713100000O0094,4.471465,46.742428
2018-1126788,2018-03-28,Vente,70000.0,RUE DES ECOLES,80110.0,80628,Le Plessier-Rozainvillers,80628000AC0278,2.551735,49.74946
2018-358188,2018-03-21,Vente,59000.0,GR GRAND RUE,30210.0,30317,Sernhac,303170000D0092,4.552574,43.910939
2018-998468,2018-11-28,Vente,145000.0,LES GRANGES,73800.0,73151,Porte-de-Savoie,731510000A2521,6.001188,45.500019
2018-767660,2018-04-20,Vente,80000.0,RUE DU SCORFF,56160.0,56099,Langoëlan,56099000AA0167,-3.23448,48.119053
2018-265691,2018-09-25,Vente,150000.0,PRE SOUS LE CHATEAU,24210.0,24473,Sainte-Orse,24473000AC0082,1.072324,45.205647
2018-165173,2018-08-29,Vente,197500.0,VC ROCHE BOUQUET,14220.0,14689,Le Hom,14689000ZA0043,-0.480903,48.992281
2018-878707,2018-03-16,Vente,117000.0,RUE DU MONTOIR,63120.0,63249,Néronde-sur-Dore,632490000C0726,3.523378,45.799446
2018-807881,2018-07-18,Vente,345000.0,RUE D ORCHIES,59310.0,59330,Landas,593300000B0568,3.28127,50.476333
2018-780244,2018-09-05,Vente,135000.0,RUE MEXICO,59000.0,59350,Lille,59350000PW0449,3.043729,50.621648
2018-495024,2018-05-04,Vente,123300.0,RLE DES MOULINS,35160.0,35188,Montfort-sur-Meu,35188000AW0057,-1.954572,48.13468
2018-662266,2018-05-15,Vente,62000.0,AV DU GENERAL DE GAULLE,46170.0,46063,Castelnau Montratier-Sainte Alauzie,46063000AB0587,1.351159,44.271067
2018-947009,2018-03-14,Vente,258000.0,MTE DE PIERRE REGARD,69700.0,69136,Montagny,69136000AE0266,4.759275,45.624125
2018-536466,2018-02-08,Vente,99500.0,LES GAUDES,38660.0,38395,Plateau-des-Petites-Roches,38395000AC0023,5.88696,45.311385
2018-1303665,2018-04-12,Vente,190000.0,RUE ANATOLE FRANCE,93130.0,93053,Noisy-le-Sec,930530000S0321,2.452565,48.889636
2018-343038,2018-11-21,Vente,275000.0,CAMERALE,20118.0,2A348,Vico,2A3480000A0909,8.701841,42.120368
2018-632569,2018-08-27,Vente terrain à bâtir,44000.0,RUE JEAN-BAPTISTE CHARCOT,44760.0,44012,La Bernerie-en-Retz,44012000AB0935,-2.041796,47.094743
2018-1389671,2018-09-19,Vente,503040.0,RUE SAINT HONORE,75001.0,75101,Paris 1er Arrondissement,75101000AX0011,2.332133,48.864559
2018-1302925,2018-02-27,Vente,100000.0,RUE DE LA GARE,93130.0,93053,Noisy-le-Sec,930530000Y0058,2.459069,48.896072
2018-943838,2018-10-25,Vente en l'état futur d'achèvement,289000.0,RUE FREDERIC FAYS,69100.0,69266,Villeurbanne,69266000BV0056,4.905279,45.760957
2018-193815,2018-02-02,Vente en l'état futur d'achèvement,210000.0,AV DE FETILLY,17000.0,17300,La Rochelle,17300000CI0687,-1.151542,46.170385
2018-375640,2018-10-25,Vente,182692.0,RUE ROQUELAINE,31000.0,31555,Toulouse,31555823AC0747,1.447167,43.61208
2018-1426810,2018-03-02,Vente,435000.0,RUE MANIN,75019.0,75119,Paris 19e Arrondissement,75119000CW0014,2.389783,48.884025
2018-650653,2018-09-05,Vente,47500.0,ALL DES ROITELETS,45160.0,45232,Olivet,45232000AN0229,1.90338,47.874379
2018-890541,2018-11-30,Vente,115000.0,AV DU PIC DU MIDI,64800.0,64270,Igon,642700000B0463,-0.219511,43.14537
2018-510096,2018-09-12,Vente,90000.0,LA MAISON NEUVE,35370.0,35006,Argentré-du-Plessis,35006000AC0075,-1.146954,48.055923
2018-1341304,2018-04-12,Vente,116000.0,RUE POMMIER,94190.0,94078,Villeneuve-Saint-Georges,94078000AO0496,2.450151,48.734798
2018-750235,2018-05-31,Vente,96300.0,RUE DE KERAT,56890.0,56206,Saint-Avé,56206000AS0223,-2.720429,47.682074
2018-614398,2018-08-30,Vente,80000.0,BD VICTOR HUGO,44200.0,44109,Nantes,44109000DV0145,-1.548907,47.202667
2018-22881,2018-04-18,Vente,155000.0,RUE DE COINCY,2210.0,2538,Nanteuil-Notre-Dame,025380000A0588,3.410145,49.190081
2018-414584,2018-02-28,Vente,243000.0,RUE CLAUDE DEBUSSY,33140.0,33550,Villenave-d'Ornon,33550000BS0099,-0.572907,44.75953
2018-847169,2018-06-13,Vente,170000.0,CHS BRUNEHAUT,62960.0,62512,Ligny-lès-Aire,625120000A0129,2.35325,50.56907
2018-1346777,2018-05-23,Vente,370000.0,CHE DU MOULIN,94500.0,94017,Champigny-sur-Marne,94017000BH0443,2.512476,48.818356
2018-367313,2018-02-22,Vente,55000.0,CHE DU SEMINAIRE,31200.0,31555,Toulouse,31555830AK0030,1.437202,43.639248
2018-789388,2018-06-27,Vente,162910.0,MARTINSART,59113.0,59560,Seclin,595600000C2386,3.054808,50.532929
2018-431562,2018-07-17,Vente,366250.0,ALL JEAN RACINE,33470.0,33199,Gujan-Mestras,33199000DK0307,-1.064582,44.61895
2018-344119,2018-02-08,Vente,60300.0,VANGALE,20230.0,2B307,Santa-Lucia-di-Moriani,2B307000AH1253,,
2018-1073843,2018-07-06,Vente en l'état futur d'achèvement,239500.0,AV FRANCOIS MITTERRAND,77144.0,77307,Montévrain,773070000C1518,2.7621,48.866946
2018-1184351,2018-03-29,Vente,320000.0,CRS DU MIDI,84600.0,84097,Richerenches,84097000AB0149,4.912315,44.359135
2018-932435,2018-08-31,Vente,230000.0,AV PAUL SANTY,69008.0,69388,Lyon 8e Arrondissement,69388000BE0116,4.872423,45.731959
2018-1295827,2018-05-29,Vente,389000.0,RUE GALLIENI,92240.0,92046,Malakoff,920460000L0115,2.303079,48.817225
2018-938990,2018-05-25,Vente,109000.0,RUE GARIBALDI,69800.0,69290,Saint-Priest,69290000CS0219,4.938491,45.687765
2018-1200562,2018-07-09,Vente,140000.0,CHE DE LA MOULINE,85100.0,85194,Les Sables-d'Olonne,85194166BO0174,-1.799848,46.521075
2018-244426,2018-05-25,Vente,125000.0,RUE DE BEL AIR,22800.0,22262,Quintin,222620000D0388,-2.902401,48.402289
2018-850275,2018-02-22,Vente,160000.0,RUE GALVANI,62300.0,62498,Lens,62498000BD0338,2.83699,50.451559
2018-1213723,2018-09-24,Vente,55000.0,LE BOURG,86120.0,86090,Curçay-sur-Dive,860900000B0144,-0.057587,47.011672
2018-584506,2018-07-28,Vente,78000.0,LA MANSARDE,41130.0,41016,Billy,41016000ZD0068,1.527815,47.310466
2018-822205,2018-04-30,Vente,323000.0,ALL DES GRIVES,60240.0,60412,Montagny-en-Vexin,604120000B0128,1.800942,49.189699
2018-343972,2018-02-05,Vente,375000.0,GIORGHA,20240.0,2B283,Solaro,2B2830000B1836,9.391596,41.900038
2018-653252,2018-02-23,Vente,114200.0,LES OUCHES,45310.0,45337,Villamblain,45337000ZO0054,1.564077,48.030427
2018-1343027,2018-08-29,Vente,125000.0,RUE LEON BLUM,94190.0,94078,Villeneuve-Saint-Georges,94078000AC0113,2.450409,48.75102
2018-1078843,2018-11-26,Vente en l'état futur d'achèvement,309000.0,AV DE LA RESISTANCE,77500.0,77108,Chelles,77108000BH0125,2.586245,48.877356
2018-49936,2018-07-04,Vente en l'état futur d'achèvement,435000.0,AV DE FABRON,6200.0,6088,Nice,06088000NK0028,7.21971,43.688925
2018-734511,2018-09-26,Vente,195000.0,RUE DE MONTREVILLE,54000.0,54395,Nancy,54395000AE0241,6.162871,48.69947
2018-24322,2018-02-22,Vente,405000.0,DE FERRIERE,3320.0,3198,Neure,031980000B0553,2.967524,46.735953
2018-61391,2018-09-03,Vente,310000.0,AV BEL AIR,6600.0,6004,Antibes,06004000BK0123,7.11363,43.579243
2018-844532,2018-10-30,Vente,50000.0,RUE DES FRERES DAVION,62450.0,62080,Bapaume,62080000AH0351,2.847213,50.107208
2018-683712,2018-01-22,Vente,130000.0,RUE BEAUSEJOUR,49570.0,49244,Mauges-sur-Loire,49244212AM0060,-0.856118,47.384663
2018-634660,2018-01-30,Vente,188000.0,CITE DE LA JARIAIS,44220.0,44047,Couëron,44047000BW0528,-1.717102,47.211686
2018-332556,2018-09-28,Vente,25000.0,PL DE LA CHAPELLE,29890.0,29021,Plounéour-Brignogan-plages,29021203AB0236,-4.31808,48.651182
2018-1177037,2018-07-24,Vente,255000.0,CRS CARDINAL BERTRAND MFT,84140.0,84007,Avignon,84007000BH0291,4.872164,43.935724
2018-1195979,2018-09-19,Vente,96000.0,RUE DE LA REPUBLIQUE,85580.0,85104,Grues,851040000A1910,-1.306584,46.398629
2018-41504,2018-03-06,Vente,120290.0,RUE MAURICE MACCARIO,6000.0,6088,Nice,06088000HD0119,7.284311,43.723903
2018-1022392,2018-10-17,Vente,125000.0,RTE DU VILLAGE,74800.0,74253,Saint-Sixt,742530000A2928,6.318255,46.053254
2018-895380,2018-09-14,Vente,65000.0,BEHAUNE NORD,64640.0,64313,Lantabat,643130000B0746,-1.107649,43.272403
2018-661449,2018-03-27,Vente,120000.0,LARIGAUD,46700.0,46187,Mauroux,461870000D0577,1.055508,44.431945
2018-586465,2018-06-05,Vente,33000.0,GRAND CULTY,42650.0,42237,Saint-Jean-Bonnefonds,42237000AI0017,4.441814,45.45605
2018-731843,2018-06-15,Vente,267000.0,RUE DE METZ,54000.0,54395,Nancy,54395000AH0354,6.171983,48.701515
2018-237273,2018-02-23,Vente,100000.0,LA GRANDE COTE,21330.0,21419,Molesme,21419000ZZ0115,4.39062,47.92846
2018-601574,2018-03-09,Vente,25000.0,RUE PORTE DE RAVEL,43270.0,43003,Allègre,430030000B0648,3.713119,45.202484
2018-209336,2018-03-27,Vente,30000.0,LES CHAINEAUX NORD,17800.0,17388,Saint-Quantin-de-Rançanne,17388000ZP0032,-0.595372,45.527122
2018-78995,2018-08-10,Vente,145000.0,ROUMEGOUSE,7380.0,7178,Pont-de-Labeaume,071780000A1229,4.313276,44.664965
2018-1179406,2018-12-19,Vente,242250.0,LES POUILLAQUES,84870.0,84067,Loriol-du-Comtat,840670000E0008,5.002223,44.070982
2018-1425088,2018-10-30,Vente,220000.0,RUE DE CLIGNANCOURT,75018.0,75118,Paris 18e Arrondissement,75118000BF0084,2.348646,48.894656
2018-983781,2018-03-07,Vente,154000.0,CHAMP VERITE,72150.0,72143,Le Grand-Lucé,721430000F0233,0.519899,47.846417
2018-1305806,2018-07-27,Vente,262000.0,RUE VICTOR HUGO,93170.0,93006,Bagnolet,93006000AG0284,2.418558,48.85711
2018-951190,2018-03-06,Vente,266742.0,RUE DES PEUPLIERS,69930.0,69220,Saint-Laurent-de-Chamousset,692200000C0455,4.468109,45.734383
2018-215743,2018-08-10,Vente,135000.0,CHE DE LA FORET,17160.0,17428,Sonnac,17428000ZM0155,-0.293074,45.816432
2018-881869,2018-06-15,Vente,105000.0,ROUSSAT,63320.0,63335,Saint-Diéry,63335000ZS0062,2.978811,45.548642
2018-91358,2018-06-29,Vente,117800.0,LOUDAS,9130.0,9019,Artigat,090190000C0280,1.424912,43.139416
2018-598882,2018-07-19,Vente,44500.0,BD JEAN BAPTISTE CLEMENT,42300.0,42187,Roanne,42187000BD0227,4.082904,46.045623
2018-489182,2018-07-27,Vente,380000.0,AV SERGENT MAGINOT,35000.0,35238,Rennes,35238000BP0210,-1.669274,48.109546
2018-1039066,2018-10-05,Vente,219000.0,LA CHAUSSEE,76150.0,76594,Saint-Jean-du-Cardonnay,76594000AK0095,0.995453,49.493118
2018-277285,2018-09-13,Vente en l'état futur d'achèvement,85680.0,RTE DE FRANOIS,25000.0,25056,Besançon,25056000LX0198,5.950815,47.222308
2018-541810,2018-01-17,Vente,90000.0,RTE DE CHAMPAME,38860.0,38253,Les Deux Alpes,38253000AK0391,6.126375,45.017114
2018-595461,2018-08-27,Vente,381000.0,CHE DES PLANTEES,42600.0,42147,Montbrison,42147000AV0709,4.048578,45.603528
2018-957228,2018-04-25,Vente,93000.0,RUE AMPERE,69400.0,69264,Villefranche-sur-Saône,69264000AP0289,4.724335,45.987831
2018-1100386,2018-12-19,Vente,147000.0,AV D ALIGRE,78230.0,78481,Le Pecq,78481000AD0131,2.112592,48.896165
2018-983103,2018-12-21,Vente en l'état futur d'achèvement,399000.0,RUE DES VICTIMES DU NAZISME,72000.0,72181,Le Mans,72181000CI0089,0.211987,48.011966
2018-358222,2018-04-10,Vente,210000.0,CHE DES ANCIENS ABATTOIRS,30300.0,30032,Beaucaire,30032000AI0107,4.642179,43.800152
2018-608215,2018-02-26,Vente,165000.0,RUE DE MAYENNE,44230.0,44190,Saint-Sébastien-sur-Loire,44190000DM0283,-1.524651,47.196979
2018-530187,2018-10-19,Vente,155000.0,RUE DE LA POULETTERIE,37600.0,37132,Loches,37132000BC0197,0.991362,47.121392
2018-668524,2018-11-29,Vente,470000.0,SINCOU BAS,47470.0,47087,Engayrac,47087000WD0162,0.907462,44.260435
2018-615090,2018-09-26,Vente,177000.0,RUE DE LA BOULOGNE,44230.0,44190,Saint-Sébastien-sur-Loire,44190000BW0030,-1.512776,47.207632
2018-833720,2018-09-28,Vente en l'état futur d'achèvement,179000.0,SAINT LAURENT,60800.0,60176,Crépy-en-Valois,60176000AY0103,2.879827,49.234111
2018-439368,2018-02-22,Vente,172000.0,GRAND RETIVEAU,33230.0,33218,Lagorce,33218000AI0316,-0.167813,45.060599
2018-637315,2018-06-15,Vente,280000.0,KER HOTE,44410.0,44072,Herbignac,44072000YN0211,-2.364406,47.427586
2018-1184129,2018-02-28,Vente,250000.0,IMP DU CLOS BOIELDIEU,84110.0,84137,Vaison-la-Romaine,84137000AD0295,5.060872,44.251141
2018-755761,2018-01-09,Vente,80000.0,LA RIVE DE CALAN,56620.0,56040,Cléguer,56040000ZX0180,-3.336337,47.877571
2018-14019,2018-11-09,Vente,220000.0,RTE DE LA GENETIERE,1600.0,1238,Massieux,01238000AB0332,4.816265,45.905857
2018-1123432,2018-02-01,Vente,115000.0,LES DOUZE,80150.0,80222,Crécy-en-Ponthieu,80222000ZE0035,1.896795,50.22534
2018-564220,2018-01-05,Vente,209000.0,FOURNIS,40250.0,40309,Souprosse,403090000K0104,-0.688706,43.785677
2018-32013,2018-03-12,Vente,30300.0,LES CONDAMINES,4170.0,4133,Moriez,041330000H0465,6.451511,43.994621
2018-139906,2018-05-24,Vente,300300.0,RUE DE L ESCALET,13013.0,13213,Marseille 13e Arrondissement,132138830D0218,5.416673,43.353742
2018-1352127,2018-04-18,Vente,155000.0,RUE DES RAYONS,95430.0,95120,Butry-sur-Oise,95120000AC0554,2.200392,49.081357
2018-329560,2018-12-05,Vente,94477.5,PEN AN TRAON,29820.0,29069,Guilers,290690000C0336,-4.571941,48.42018
2018-580031,2018-08-29,Vente,185000.0,RUE CREUSE,41120.0,41032,Chailles,41032000AI0396,1.309247,47.536295
2018-380995,2018-03-19,Vente,158000.0,RUE DE LONDRES,31100.0,31555,Toulouse,31555840AD0033,1.411656,43.569485
2018-405019,2018-01-30,Vente,270000.0,RUE PARLEMENT ST PIERRE,33000.0,33063,Bordeaux,33063000KM0140,-0.571074,44.840302
2018-543096,2018-05-25,Vente,84000.0,PETIT PLAN,38860.0,38253,Les Deux Alpes,38253000AI0039,6.124383,45.022166
2018-289754,2018-08-02,Vente,450000.0,LA VILLE,26190.0,26307,Saint-Jean-en-Royans,26307000AM0780,5.288135,45.017081
2018-1231827,2018-10-10,Vente,45745.5,PRES JEAN MESSIN,88270.0,88233,Harol,882330000A0975,6.259148,48.17551
2018-977684,2018-11-23,Vente,120000.0,RUE DE SEUGNY,71500.0,71263,Louhans,712631140G0290,5.226802,46.645617
2018-584522,2018-07-27,Vente,298800.0,ENCEINTE DE LA PAILLIERE,41210.0,41127,La Marolle-en-Sologne,411270000D0346,1.773191,47.559601
2018-969750,2018-05-24,Vente,249000.0,RUE PHILIPPE FLATOT,71380.0,71445,Saint-Marcel,714450000F0074,4.894129,46.777362
2018-222092,2018-02-16,Vente,147390.0,LES NOUES CREUSES,18260.0,18168,Le Noyer,181680000A0752,2.647636,47.374321
2018-77430,2018-04-09,Vente,138500.0,PERRIER,7000.0,7184,Pranles,071840000E0264,4.568727,44.790233
2018-441350,2018-07-20,Vente,78000.0,CHAMP D AURON,33133.0,33179,Galgon,33179000BV0055,-0.284691,44.987827
2018-458771,2018-11-08,Vente,192000.0,AV GEORGES CLEMENCEAU,34000.0,34172,Montpellier,34172000HW0234,3.873684,43.604574
2018-729809,2018-03-20,Vente,76954.5,RUE JEANNE D ARC,54000.0,54395,Nancy,54395000CD0213,6.169623,48.689199
2018-501940,2018-06-20,Vente,43090.0,AV DE PELOUINE,35480.0,35176,Guipry-Messac,35176000AB0244,-1.800881,47.824247
2018-1096390,2018-05-30,Vente,110000.0,AV DE BELLEVUE,78700.0,78172,Conflans-Sainte-Honorine,78172000AT0694,2.117083,48.993341
2018-1196620,2018-10-24,Vente,93000.0,RUE DES JARDINS,85580.0,85297,Triaize,852970000E1351,-1.198712,46.39386
2018-826026,2018-06-29,Vente terrain à bâtir,335650.0,LES FOSSES DE VISIGNEUX,60840.0,60130,Catenoy,601300000X0498,2.513954,49.369141
2018-109801,2018-07-12,Vente,180000.0,TRA DE BELLEVUE,11560.0,11145,Fleury,11145000BX0171,3.188003,43.178868
2018-705865,2018-12-11,Vente,50000.0,BD DES DUNES,50310.0,50507,Saint-Marcouf,50507000AD0116,-1.264219,49.491858
2018-510743,2018-12-26,Vente en l'état futur d'achèvement,255000.0,RUE DE LA MERIAIS,35500.0,35360,Vitré,35360000AM0775,-1.212241,48.120898
2018-287034,2018-04-20,Vente,240000.0,RTE DU VERCORS,26120.0,26064,Chabeuil,26064000ZR0010,5.047174,44.910533
2018-446254,2018-05-18,Vente,26130.0,L HOPITAL DE MIGNOT,33180.0,33395,Saint-Estèphe,333950000D1078,-0.799179,45.241278
2018-1381484,2018-04-27,Vente,150500.0,RUE JEAN ALBANY,97419.0,97408,La Possession,97408000AT1006,55.333767,-20.963294
2018-570763,2018-01-11,Vente,75000.0,TUCS,40260.0,40075,Castets,400750000C0264,-1.108614,43.920623
2018-1254020,2018-12-05,Vente,169000.0,RUE DE VILLOISON,91100.0,91174,Corbeil-Essonnes,91174000AL0587,2.485113,48.608377
2018-74891,2018-09-12,Vente,489000.0,ALL DU BAOU VAUGRENIER,6270.0,6161,Villeneuve-Loubet,06161000BC0002,7.113849,43.63728
2018-1325648,2018-10-18,Vente,165000.0,RUE COLMET LEPINAY,93100.0,93048,Montreuil,93048000BT0033,2.444798,48.854407
2018-409620,2018-08-03,Vente,380430.0,AV JEAN-JACQUES ROUSSEAU,33160.0,33449,Saint-Médard-en-Jalles,33449000AS1034,-0.727129,44.894685
2018-1207406,2018-09-03,Vente,79000.0,LES TERRES NOIRES,85230.0,85221,Saint-Gervais,852210000C2701,-1.981057,46.913746
2018-487998,2018-07-03,Vente,172000.0,MAIL GALILEE,35131.0,35066,Chartres-de-Bretagne,35066000AI0413,-1.700259,48.035868
2018-665975,2018-03-27,Vente,37000.0,AV GEORGES CUVIER,47000.0,47001,Agen,47001000AR0685,,
2018-277376,2018-10-04,Vente en l'état futur d'achèvement,154000.0,RUE DES SAINTS MARTIN,25000.0,25056,Besançon,25056000HN0028,5.997552,47.242732
2018-972100,2018-10-16,Vente,230000.0,ROUGEPONT,71240.0,71512,Sennecey-le-Grand,71512000ZS0052,4.891801,46.615933
2018-13201,2018-09-12,Vente,524632.0,RUE DES BLES D'OR,1480.0,1194,Jassans-Riottier,01194000AB0241,4.761974,45.99275
2018-118195,2018-11-06,Vente,78500.0,CAMP DEL SOL,12430.0,12299,Villefranche-de-Panat,122990000D0392,2.706779,44.088102
2018-370844,2018-07-09,Vente,463320.0,RUE TEMPONIERES,31000.0,31555,Toulouse,31555818AB0386,1.442681,43.601342
2018-1179661,2018-12-21,Vente,132000.0,AV FLEURS DES CHAMPS,84130.0,84092,Le Pontet,84092000BX0187,4.876227,43.964313
2018-387315,2018-11-21,Vente,163200.0,AV HENRI MARTIN,31770.0,31149,Colomiers,31149000BP0343,1.352462,43.60024
2018-1141215,2018-02-02,Vente,137000.0,NAUZES,82170.0,82075,Grisolles,82075000AK0055,1.292364,43.836022
2018-804619,2018-06-15,Vente,32982.95,MORBECQUE MEULEN VELD,59190.0,59416,Morbecque,59416000ZK0004,2.507919,50.701437
2018-1185424,2018-09-03,Vente,142500.0,AV DE LA LIBERATION,84150.0,84056,Jonquières,84056000AR0150,4.90624,44.114495
2018-1055682,2018-06-05,Vente,99000.0,RUE DE LA FERTE ALAIS,77930.0,77412,Saint-Germain-sur-École,774120000A1075,2.504093,48.479387
2018-738500,2018-07-28,Vente,178000.0,RUE DE PARIS,54440.0,54261,Herserange,54261000AE0340,5.789836,49.520094
2018-1329076,2018-06-28,Vente,215000.0,RUE DES REMISES,94100.0,94068,Saint-Maur-des-Fossés,940680000N0129,2.472922,48.804589
2018-157750,2018-03-09,Vente,213000.0,RUE DES COLVERTS,13200.0,13004,Arles,13004000BH0277,4.617923,43.665625
2018-114096,2018-05-07,Vente en l'état futur d'achèvement,139402.0,,,12096,Espalion,12096000AD0608,2.76592,44.525073
2018-562307,2018-11-23,Vente,43000.0,RUE DES ROCHES,39240.0,39018,Aromas,39018000ZM0077,5.475135,46.280571
2018-343611,2018-12-27,Vente en l'état futur d'achèvement,251000.0,,,2A247,Porto-Vecchio,2A247000BC0153,9.275991,41.579169
2018-1164245,2018-09-14,Vente,85000.0,CHE REY,83500.0,83126,La Seyne-sur-Mer,83126000AY0541,5.889851,43.078669
2018-49542,2018-06-04,Vente,522000.0,AV DE PESSICART,6100.0,6088,Nice,06088000LW0553,,
2018-74655,2018-08-03,Vente,178448.2,AV DE LA COLLE,6800.0,6027,Cagnes-sur-Mer,06027000AM0416,7.125094,43.664173
2018-1089117,2018-05-16,Vente en l'état futur d'achèvement,264000.0,RUE DES LANDES,78400.0,78146,Chatou,78146000AO0440,2.142432,48.900528
2018-509984,2018-08-16,Vente,158000.0,RUE DUGUESCLIN,35370.0,35272,Saint-Germain-du-Pinel,35272000AB0246,-1.167014,48.010612
2018-750712,2018-07-03,Vente,46000.0,LA MOTTE VERTE,56250.0,56053,Elven,56053000AB0352,-2.584555,47.739432
2018-416621,2018-04-25,Vente,284000.0,RUE PAUL PAINLEVE,33600.0,33318,Pessac,33318000BH0292,-0.625214,44.814536
2018-1386135,2018-07-13,Vente,250000.0,CHE MAZEAU,97424.0,97413,Saint-Leu,97413000BM0782,55.302157,-21.209839
2018-1098555,2018-09-20,Vente,530000.0,BD VICTOR HUGO,78130.0,78440,Les Mureaux,78440000AO0236,1.910891,48.992213
2018-383995,2018-07-20,Vente,116500.0,RUE DES ROITELETS,31700.0,31056,Beauzelle,31056000AK0100,1.379842,43.663149
2018-120461,2018-02-09,Vente,160000.0,RUE SAINTE VICTORINE,13003.0,13203,Marseille 3e Arrondissement,132038130E0140,5.381277,43.314331
2018-118746,2018-03-08,Vente,370000.0,LA FAGE,12240.0,12054,La Capelle-Bleys,120540000A0627,2.172075,44.31959
2018-1387985,2018-02-08,Vente,442950.0,RUE CHAPON,75003.0,75103,Paris 3e Arrondissement,75103000AS0026,2.357051,48.863226
2018-1186470,2018-01-18,Vente terrain à bâtir,43200.0,LA MAISON NEUVE PAYNAUD,85140.0,85084,Essarts en Bocage,85084000XC0448,-1.241826,46.773916
2018-35601,2018-01-25,Vente,530000.0,RUE DE L EYRETTE,5330.0,5133,Saint-Chaffrey,05133000AB0303,6.591791,44.934393
2018-191460,2018-01-22,Echange,41124.0,LALIGNE,16200.0,16216,Mérignac,162160000D0200,-0.081635,45.701401
2018-751535,2018-07-17,Vente,67000.0,BD DE LA PAIX,56000.0,56260,Vannes,56260000BP0359,-2.757627,47.661089
2018-534182,2018-09-04,Vente,383300.0,COTE MALACARE,38240.0,38229,Meylan,38229000AB0037,5.774751,45.221972
2018-579338,2018-06-29,Vente,47455.0,SUR LES ROUSELLES,41500.0,41136,Mer,41136000YV0073,1.489749,47.733617
2018-356851,2018-06-14,Adjudication,212000.0,CHE DU CARREAU DE LANES,30900.0,30189,Nîmes,30189000LC0355,4.295371,43.845983
2018-1312452,2018-06-29,Vente,270000.0,RUE DES JARDINIERS,93240.0,93072,Stains,930720000S0187,2.382006,48.946567
2018-1226644,2018-12-21,Vente,71000.0,ALL CONDILLAC,87000.0,87085,Limoges,87085000NN0146,1.239383,45.820401
2018-453586,2018-06-22,Vente en l'état futur d'achèvement,192537.0,RUE PIERRE BOUYERON,34070.0,34172,Montpellier,34172000PC0178,3.842704,43.591834
2018-433577,2018-09-04,Vente en l'état futur d'achèvement,253112.0,RUE DE LA LAMPROIE,33270.0,33167,Floirac,33167000AW0155,-0.526604,44.827186
2018-363198,2018-04-16,Vente,400000.0,BESSES,30450.0,30201,Ponteils-et-Brésis,302010000F0599,3.999739,44.386158
2018-94746,2018-04-05,Vente,215000.0,RUE DES DEUX HAIES,10430.0,10325,Rosières-près-Troyes,10325000AP0239,4.086385,48.265086
2018-717839,2018-01-26,Vente,183500.0,RUE DE CHAMPAGNE,52200.0,52269,Langres,52269000AD0283,5.341386,47.876849
2018-1115113,2018-07-30,Vente,28000.0,RUE DES MEUNIERS  MOULINS,79700.0,79079,Mauléon,79079186AB0382,-0.793403,46.951922
2018-201067,2018-02-19,Vente,56000.0,RTE DU VINET,17920.0,17064,Breuillet,17064000ZI0247,-1.046626,45.695274
2018-1035682,2018-12-14,Vente,141000.0,RUE MURS SAINT YON,76100.0,76540,Rouen,76540000NC0182,1.077165,49.429846
2018-904925,2018-11-06,Vente,71305.0,MONTAGNE DE BATSEGURE,65170.0,65017,Aragnouet,65017000AA0043,0.159998,42.783278
2018-37879,2018-06-28,Vente,160000.0,RTE DE GAP,5100.0,5023,Briançon,05023000AL0229,6.630335,44.89431
2018-245015,2018-06-20,Vente,140000.0,RUE PENTHIEVRE,22640.0,22140,La Malhoure,22140000ZD0166,-2.495885,48.398446
2018-1075907,2018-09-06,Vente en l'état futur d'achèvement,316000.0,RUE DES TANNEURS,77400.0,77243,Lagny-sur-Marne,77243000AK0278,2.704486,48.879364
2018-1013255,2018-09-19,Vente en l'état futur d'achèvement,406000.0,CHE DU PERIMETRE,74940.0,74010,Annecy,74010011AE0448,6.130085,45.924725
2018-276739,2018-08-02,Vente,50000.0,RUE BATTANT,25000.0,25056,Besançon,25056000AZ0137,6.021346,47.243279
2018-950053,2018-12-07,Vente en l'état futur d'achèvement,268800.0,RUE DES USINES,69390.0,69260,Vernaison,69260000AD0017,4.814179,45.647986
2018-294202,2018-04-26,Vente,42000.0,LA PENABLE,26110.0,26190,Montaulieu,261900000B0485,5.228884,44.357415
2018-1266835,2018-02-23,Vente,440000.0,LE FRESNE,91470.0,91249,Forges-les-Bains,91249000ZC0019,2.082992,48.627946
2018-788508,2018-07-09,Vente,167100.0,RUE EDOUARD VAILLANT,59100.0,59512,Roubaix,59512000IV0214,3.17231,50.674243
2018-663954,2018-09-27,Vente,80000.0,LA RIVIERE,46100.0,46175,Lissac-et-Mouret,461750000A1151,1.988959,44.629641
2018-1238293,2018-04-05,Vente,205100.0,RUE DU GRAND CAIRE,89000.0,89024,Auxerre,89024000ET0042,3.567624,47.799167
2018-939216,2018-06-11,Vente en l'état futur d'achèvement,222000.0,RTE DE VIENNE,69320.0,69276,Feyzin,69276000BD0358,4.85918,45.664891
2018-928411,2018-01-24,Vente,165000.0,RUE DUGUESCLIN,69007.0,69387,Lyon 7e Arrondissement,69387000AE0037,4.850697,45.751964
2018-392395,2018-12-19,Vente,130000.0,RUE DE VAURE,31250.0,31451,Revel,31451000AB0217,2.003935,43.45942
2018-693272,2018-12-20,Vente,140972.38,LE BRICHET,49330.0,49080,Les Hauts-d'Anjou,490800000C0219,-0.516536,47.693528
2018-757962,2018-06-13,Vente,365000.0,RUE DES ROSEAUX,56260.0,56107,Larmor-Plage,56107000AO0229,-3.389546,47.706149
2018-723852,2018-10-08,Vente en l'état futur d'achèvement,215000.0,RUE DU VICOIN,53970.0,53119,L'Huisserie,53119000AH0232,-0.761456,48.026166
2018-927009,2018-11-12,Vente,220000.0,CHE DES PETITES BROSSES,69300.0,69034,Caluire-et-Cuire,69034000AX0428,4.857957,45.794831
2018-937266,2018-04-06,Vente,123900.0,AV ROGER SALENGRO,69100.0,69266,Villeurbanne,69266000BA0010,4.885475,45.780867
2018-202857,2018-07-02,Vente,30000.0,SEGRIENNE,17780.0,17375,Saint-Nazaire-sur-Charente,17375000ZK0128,-1.064536,45.932236
2018-1174262,2018-02-02,Vente en l'état futur d'achèvement,149500.0,LA GRANDE BASTIDE,84740.0,84142,Velleron,84142000AK0769,5.033004,43.958614
2018-1182981,2018-10-30,Vente,360000.0,QUAI ROUGET DE L ISLE,84800.0,84054,L'Isle-sur-la-Sorgue,84054000CP0676,5.051805,43.917854
2018-833527,2018-09-13,Vente,271720.0,RUE DU HAUT DE VILLEVERT,60300.0,60612,Senlis,60612000AV0282,2.591026,49.214848
2018-359760,2018-07-03,Vente,405920.0,IMP SALICORNES,30320.0,30206,Poulx,30206000AY0205,4.426731,43.901594
2018-400734,2018-05-03,Vente,24250.0,A ANJOY,32380.0,32385,Saint-Léonard,323850000D0214,0.778423,43.845261
2018-143477,2018-01-31,Vente,499500.0,SAINT-JULIEN EST,13510.0,13032,Éguilles,13032000BZ0583,5.353883,43.573485
2018-810692,2018-05-14,Vente,55110.0,RUE DU HUIT MAI 1945,59138.0,59467,Pont-sur-Sambre,594670000C0877,3.855896,50.217807
2018-1314901,2018-02-08,Vente,198000.0,RUE JULES GUESDE,93600.0,93005,Aulnay-sous-Bois,930050000T0042,,
2018-659050,2018-11-05,Vente,248000.0,TEILLAY LE GAUDIN,45480.0,45240,Outarville,452400000D0024,2.019598,48.212098
2018-509130,2018-02-20,Vente,300000.0,L'ETANG DE LANDEMOUX,35210.0,35072,Châtillon-en-Vendelais,35072000YE0019,-1.143307,48.218319
2018-528228,2018-08-16,Vente,214000.0,LA BROSSERIE,37130.0,37150,Mazières-de-Touraine,371500000B0273,0.464385,47.395599
2018-82144,2018-06-05,Vente,133000.0,AV DE LA REPUBLIQUE,7500.0,7102,Guilherand-Granges,07102000AB0268,4.869506,44.936969
2018-693295,2018-12-20,Vente,175500.0,LES LANDAIS,49500.0,49089,Chazé-sur-Argos,49089000ZR0025,-0.883551,47.604324
2018-1136443,2018-10-18,Vente,120000.0,LA PEYRIE,81440.0,81250,Saint-Genest-de-Contest,812500000B0784,2.146488,43.759363
2018-104076,2018-08-31,Vente,240000.0,RTE DE LA BORDETTE,,11293,Pomas,112930000A1756,2.284627,43.107696
2018-709027,2018-01-19,Vente,150000.0,BEAUVOISIN,51270.0,51033,Le Baizil,510330000C0244,3.797227,48.954769
2018-259931,2018-06-06,Vente,83800.0,LES COTES,23600.0,23254,Toulx-Sainte-Croix,232540000A0688,2.201271,46.312322
2018-1052781,2018-01-05,Vente,125200.0,RUE DE LA BEAUDERIE,77173.0,77114,Chevry-Cossigny,77114000AC0277,2.659349,48.723811
2018-1335004,2018-05-09,Vente en l'état futur d'achèvement,182500.0,AV MARCEL CACHIN,94310.0,94054,Orly,94054000AE0505,2.410806,48.748478
2018-295091,2018-04-24,Vente,107920.0,AV DU MARECHAL JUIN,26200.0,26198,Montélimar,26198000AX0598,4.756287,44.55877
2018-864217,2018-09-18,Vente,202000.0,RUE D HERBELLES,62380.0,62229,Cléty,62229000AD0121,2.188839,50.654965
2018-717964,2018-02-28,Vente,120000.0,RUE PIERRE CURIE,52000.0,52121,Chaumont,52121000BE0297,5.13607,48.111783
2018-346534,2018-09-10,Vente,154000.0,SCALO,20230.0,2B307,Santa-Lucia-di-Moriani,2B307000AH0967,9.526765,42.379333
2018-89616,2018-01-17,Vente,25000.0,BERTEILLECH,9800.0,9062,Bordes-Uchentein,090623170A0101,1.020165,42.888345
2018-921270,2018-01-25,Vente,247200.0,RUE MOULOUDJI,69009.0,69389,Lyon 9e Arrondissement,69389000AP0146,4.793837,45.78767
2018-755264,2018-12-27,Vente,550000.0,GAMBRE ORGENAL,56860.0,56243,Séné,56243000AP0324,-2.737481,47.643873
2018-898408,2018-05-24,Vente,124000.0,BD DU GENERAL DE GAULLE,64700.0,64260,Hendaye,64260000AL0023,-1.779965,43.353666
2018-306499,2018-07-13,Vente,120000.0,RTE DE PONT AUDEMER,27680.0,27518,Saint-Aubin-sur-Quillebeuf,27518000ZL0322,0.54551,49.455391
2018-79141,2018-08-27,Vente,365000.0,NIA,7700.0,7259,Saint-Just-d'Ardèche,072590000B1143,4.62688,44.295714
2018-1021368,2018-08-09,Vente,148000.0,AV JEAN JAURES,74800.0,74224,La Roche-sur-Foron,74224000AE0597,6.311552,46.067695
2018-1262921,2018-11-26,Vente,302900.0,RTE DE DOURDAN,91520.0,91207,Égly,91207000AC0435,2.220788,48.580069
2018-793169,2018-12-06,Vente,150000.0,AV DE LA MARNE,59510.0,59299,Hem,59299000AH0427,3.177842,50.668099
2018-904870,2018-10-27,Vente,265000.0,RTE DU MESNIL,65200.0,65059,Bagnères-de-Bigorre,65059000AO0144,0.158772,43.084657
2018-162135,2018-02-28,Vente,217000.0,LA BRUYERE DE MARCRUE,14700.0,14405,Martigny-sur-l'Ante,14405000ZA0009,-0.303369,48.889358
2018-790337,2018-09-13,Vente,158400.0,AV MARIE LOUISE DELWAULLE,59160.0,59350,Lille,593503550C6712,3.019161,50.632581
2018-836029,2018-11-14,Vente,22956.0,LES MONTGOMMERYS,61320.0,61216,La Lande-de-Goult,612160000F0167,-0.067937,48.593267
2018-1122890,2018-12-28,Vente en l'état futur d'achèvement,84432.0,,,80021,Amiens,80021000CS0330,2.312197,49.894329
2018-1152741,2018-02-26,Vente,290000.0,CHE DES BREGUIERES,83136.0,83111,Sainte-Anastasie-sur-Issole,831110000A0912,6.129759,43.347713
2018-1225185,2018-10-16,Vente,210000.0,PL WINSTON CHURCHILL,87000.0,87085,Limoges,87085000DM0088,1.254335,45.831708
2018-1069989,2018-01-25,Vente,345450.0,RUE MARIE,77400.0,77438,Saint-Thibault-des-Vignes,77438000BC0081,2.694631,48.87267
2018-987208,2018-08-10,Vente,220000.0,LES HAUTS DE BONVOULOIR,72430.0,72293,Saint-Jean-du-Bois,72293000AB0022,-0.027209,47.872291
2018-537031,2018-03-19,Vente,330000.0,RUE DU PONT NOIR,38120.0,38382,Saint-Égrève,38382000BM0247,5.678636,45.225829
2018-1257873,2018-08-01,Vente en l'état futur d'achèvement,154000.0,AV DE MORANGIS,91200.0,91027,Athis-Mons,910270000Z0055,2.366612,48.705523
2018-645658,2018-08-10,Vente,38000.0,RUE DES COQUELICOTS,44110.0,44036,Châteaubriant,440360000A0914,-1.376042,47.736723
2018-887702,2018-10-26,Vente,410450.0,RUE MONTPENSIER,64000.0,64445,Pau,64445000CK0363,-0.372252,43.299937
2018-1058002,2018-09-07,Vente,330777.8,AV DE LA LIBERATION,77830.0,77354,Pamfou,773540000C1482,2.871909,48.462073
2018-1185336,2018-08-10,Vente,60000.0,CRS SAINT ANTOINE,84600.0,84138,Valréas,84138000AH1136,4.993096,44.383105
2018-1333267,2018-01-30,Vente,190000.0,RUE DANTON,94270.0,94043,Le Kremlin-Bicêtre,940430000D0172,2.360044,48.813592
2018-229515,2018-01-31,Vente,64000.0,RUE BERBISEY,21000.0,21231,Dijon,21231000CX0307,5.035245,47.317279
2018-1262507,2018-09-21,Vente en l'état futur d'achèvement,156600.0,RUE SAINT EXUPERY,91240.0,91570,Saint-Michel-sur-Orge,91570000AN0238,2.309461,48.636844
2018-644716,2018-02-02,Vente,56500.0,IMP DU HALAGE,44390.0,44110,Nort-sur-Erdre,44110000BD0154,-1.513026,47.439832
2018-747609,2018-01-30,Vente,44200.0,RUE MADAME DE SEGUR,56000.0,56260,Vannes,56260000AM0297,-2.773736,47.666199
2018-338626,2018-10-05,Vente,62000.0,RUE DE BELIZAL,29600.0,29151,Morlaix,29151000BC0071,-3.829586,48.570166
2018-340782,2018-04-17,Vente,230000.0,ALBARELLO,20110.0,2A349,Viggianello,2A3490000B0719,8.938611,41.657403
2018-606078,2018-11-15,Vente,165000.0,RUE NATIONALE,43140.0,43177,Saint-Didier-en-Velay,43177000AZ0043,4.274824,45.303274
2018-1321662,2018-08-29,Vente,153000.0,AV DU MARECHAL FOCH,93360.0,93049,Neuilly-Plaisance,930490000C2843,2.500604,48.863506
2018-948810,2018-08-02,Vente,170000.0,RTE DE MORNANT,69700.0,69091,Givors,69091000BI1396,4.75757,45.588329
2018-501172,2018-03-12,Vente,23000.0,LA GUERINAIS DU VIGNAL,35390.0,35098,La Dominelais,350980000D1223,-1.695409,47.765936
2018-1325273,2018-09-13,Vente,507000.0,AV GABRIEL PERI,93100.0,93048,Montreuil,93048000BP0083,2.441862,48.857192
2018-80384,2018-11-09,Vente,102000.0,RUE ROLLAND,7000.0,7186,Privas,07186000AN0227,4.594674,44.733626
2018-556285,2018-04-27,Vente,161000.0,LE VILLAGE,38590.0,38490,Sillans,384900000B0993,5.388977,45.343091
2018-824106,2018-10-25,Vente,255000.0,RUE DE MAIDSTONE,60000.0,60057,Beauvais,60057000BW0095,2.099432,49.440704
2018-400046,2018-03-20,Vente,163000.0,BOIS DE RISCLE,32400.0,32344,Riscle,323440000C0626,-0.056765,43.640688
2018-112770,2018-01-04,Vente,183000.0,LE PUECH,12390.0,12199,Rignac,121990000B0822,2.333289,44.427259
2018-294588,2018-05-24,Vente,205000.0,RUE GENERAL PAU,26200.0,26198,Montélimar,26198000BI0018,4.761056,44.552979
2018-62019,2018-10-08,Vente,510000.0,ALL DU CENTRE,6600.0,6004,Antibes,06004000AZ0251,7.11011,43.586586
2018-1146381,2018-06-20,Vente en l'état futur d'achèvement,153788.0,RUE THEODORE AUBANEL,83600.0,83061,Fréjus,83061000BH1532,6.758529,43.430886
2018-1331650,2018-10-23,Vente,220250.0,RUE DU CANAL,94000.0,94028,Créteil,94028000BL0262,2.460104,48.770901
2018-406374,2018-04-17,Vente,422500.0,CRS DE VERDUN,33000.0,33063,Bordeaux,33063000PI0021,-0.576177,44.847373
2018-1197953,2018-01-30,Vente,210000.0,ALL DE CHANTILLY,85340.0,85194,Les Sables-d'Olonne,85194166AI0221,-1.768855,46.531631
2018-481768,2018-09-14,Vente,236820.0,RTE DE CABRIERES,34120.0,34136,Lézignan-la-Cèbe,341360000B0903,3.438432,43.498813
2018-790509,2018-09-07,Vente,150000.0,AV CORDONNIER,59100.0,59512,Roubaix,59512000EI0140,3.194445,50.681174
2018-1139651,2018-09-04,Vente,26000.0,LAFLEUR,82200.0,82127,Montesquieu,82127000AC0227,1.071035,44.193836
2018-1120923,2018-08-29,Vente,58000.0,RUE COQUEREL,80000.0,80021,Amiens,80021000DX0595,2.309233,49.884624
2018-739687,2018-12-10,Vente,73900.0,RUE COL FABIEN,54580.0,54028,Auboué,54028000AB0484,5.973488,49.213315
2018-607000,2018-11-16,Vente,33000.0,LE MANDARSOU,43320.0,43124,Loudes,431240000E0802,3.74271,45.076692
2018-852292,2018-08-10,Vente,80000.0,BD DU MARAIS,62300.0,62498,Lens,62498000BN0419,2.844953,50.435784
2018-1001252,2018-03-16,Vente,55000.0,BD DES ANGLAIS,73100.0,73008,Aix-les-Bains,73008000BX0340,5.914812,45.695036
2018-300527,2018-12-21,Vente,107000.0,RUE DU MONT ROBERGE,27200.0,27681,Vernon,27681000BD0017,1.488271,49.102157
2018-1154773,2018-06-29,Vente,400000.0,LES ESPREVEIRES,83136.0,83077,Méounes-lès-Montrieux,830770000C0383,5.969079,43.268196
2018-380829,2018-04-18,Vente,185325.0,CHE DU MOULIN,31330.0,31341,Merville,313410000D0924,1.284265,43.718781
2018-569932,2018-12-13,Vente,166110.0,PINTON,40430.0,40167,Luxey,40167000AB0827,-0.526211,44.260299
2018-1153008,2018-03-19,Vente,194709.0,SAINT ROCH EST,83460.0,83004,Les Arcs,830040000D2261,6.484072,43.46218
2018-1196217,2018-09-18,Vente,130000.0,LA JAMBOTTRIE,85510.0,85031,Le Boupère,850310000C0541,-0.947393,46.785624
2018-44013,2018-06-22,Vente,136000.0,RUE DOCTEUR PIERRE RICHELMI,6300.0,6088,Nice,06088000IY0026,7.291783,43.703736
2018-286237,2018-03-01,Vente en l'état futur d'achèvement,390000.0,LA FAUCHETIERE EST,26250.0,26165,Livron-sur-Drôme,26165000BL0986,4.832129,44.778905
2018-807208,2018-05-18,Vente,289000.0,RUE DU FBG DE BETHUNE,59500.0,59178,Douai,59178000CI0347,3.065481,50.37618
2018-1343550,2018-10-02,Vente,184000.0,AV DE LA MARECHALE,94420.0,94059,Le Plessis-Trévise,94059000AE0361,,
2018-434062,2018-09-20,Vente,91000.0,TEYCHON,33640.0,33007,Arbanats,330070000B1331,-0.398504,44.672674
2018-1091028,2018-02-07,Adjudication,104000.0,PROM MAXIME GORKI,78500.0,78586,Sartrouville,78586000AE0259,2.196915,48.944033
2018-427208,2018-03-21,Vente,220000.0,LE LAUREY OUEST,33260.0,33529,La Teste-de-Buch,33529000FZ0160,-1.164525,44.629981
2018-1378585,2018-12-27,Vente,85000.0,RES BARINGTHON - LA CHASSAING,97224.0,97207,Ducos,972070000C1851,-60.960964,14.557299
2018-214184,2018-10-17,Vente,30500.0,CAMAILLEAU,17240.0,17328,Saint-Fort-sur-Gironde,173280000D1296,-0.743014,45.440828
2018-1085819,2018-10-26,Vente en l'état futur d'achèvement,192000.0,RUE DE JOUY,78220.0,78686,Viroflay,78686000AD0732,2.184053,48.798621
2018-843654,2018-07-31,Vente,100000.0,RUE DE BELLONNE,62490.0,62627,Noyelles-sous-Bellonne,626270000B0252,3.029249,50.308466
2018-17563,2018-01-24,Vente,24064.0,CHEMIN DE PONCHAUX,2110.0,2057,Beaurevoir,020570000C1646,3.317023,49.994478
2018-1408816,2018-02-02,Vente,153000.0,RUE ALASSEUR,75015.0,75115,Paris 15e Arrondissement,75115000DH0015,2.297744,48.851193
2018-964952,2018-12-28,Vente,135000.0,RUE DU MOULIN,70000.0,70513,Vaivre-et-Montoille,70513000BM0172,6.108238,47.627166
2018-1073705,2018-06-18,Vente,31650.0,LE CHEMIN DE BRINCHES,77470.0,77199,Fublaines,77199000ZC0032,2.951399,48.937437
2018-800000,2018-12-28,Vente,208500.0,RUE DE TOURCOING,59960.0,59426,Neuville-en-Ferrain,59426000BB0178,3.156993,50.746213
2018-237400,2018-03-23,Vente,63000.0,LE VILLAGE,21120.0,21286,Frénois,21286000AB0168,4.890515,47.530035
2018-1166737,2018-12-28,Vente en l'état futur d'achèvement,235000.0,RUE DIDEROT,83500.0,83126,La Seyne-sur-Mer,83126000AO0126,5.883047,43.096089
2018-391767,2018-10-01,Vente,215269.0,AV JEAN BELAVAL,31590.0,31573,Verfeil,315730000K0904,1.665108,43.658509
2018-202066,2018-05-04,Vente,210000.0,LE BOURG EST,17780.0,17329,Saint-Froult,173290000B1256,-1.058906,45.918458
2018-1051186,2018-04-17,Vente,201800.0,LOT COEUR DE BOURG,76460.0,76467,Néville,764670000B1522,0.71225,49.825225
2018-755618,2018-12-28,Vente en l'état futur d'achèvement,138000.0,RTE DE NANTES,56860.0,56243,Séné,56243000AI0489,-2.729258,47.652423
2018-670814,2018-12-19,Vente,295000.0,COLAS BILLAU,47120.0,47059,Caubon-Saint-Sauveur,47059000ZB0018,0.165467,44.583561
2018-624530,2018-07-27,Vente,107500.0,RUE DES ROCHES,44980.0,44172,Sainte-Luce-sur-Loire,44172000BI0338,-1.476284,47.23518
2018-670485,2018-10-12,Vente,61376.54,LAROUQUETTE,47350.0,47232,Saint-Barthélemy-d'Agenais,472320000D0478,0.360696,44.498271
2018-445477,2018-12-14,Vente,88000.0,CHOLLET,33760.0,33175,Frontenac,33175000ZO0130,-0.163356,44.729995
2018-182317,2018-09-26,Vente,24000.0,LE MEYNIAL,15190.0,15110,Lugarde,15110000ZB0078,2.757709,45.290941
2018-890361,2018-10-23,Vente,140000.0,RUE DES GAVES,64400.0,64422,Oloron-Sainte-Marie,64422000AK0328,-0.607106,43.193162
2018-963989,2018-07-27,Vente,224000.0,RUE DU MANY,70000.0,70513,Vaivre-et-Montoille,70513000BP0058,6.103507,47.639072
2018-490924,2018-10-03,Vente en l'état futur d'achèvement,180000.0,ALL DES TERRASSES,35230.0,35206,Noyal-Châtillon-sur-Seiche,35206073AO0947,-1.673127,48.039297
2018-1042219,2018-10-30,Vente,160000.0,RUE DE LA MAIRIE,76630.0,76618,Petit-Caux,76618704AC0101,1.262492,49.9434
2018-923015,2018-04-25,Vente,510200.0,RUE COSTE,69300.0,69034,Caluire-et-Cuire,69034000BE0189,4.833117,45.786925
2018-465870,2018-05-31,Vente,130000.0,RUE JEAN JAURES,34200.0,34301,Sète,34301000AO0587,3.693977,43.403474
2018-1193180,2018-12-19,Vente,275000.0,MATIFEU,85600.0,85146,Montaigu-Vendée,851462240G1571,-1.302265,46.981892
2018-417082,2018-05-24,Vente en l'état futur d'achèvement,189000.0,RUE DE PEYBOUQUEY,33400.0,33522,Talence,33522000AI0605,-0.602047,44.816703
2018-134011,2018-06-29,Vente,347000.0,BD DU REDON,13009.0,13209,Marseille 9e Arrondissement,132098500D0244,5.422943,43.255779
2018-1335996,2018-06-27,Vente,314100.0,RUE HOCHE,94200.0,94041,Ivry-sur-Seine,940410000S0185,2.374703,48.811637
2018-392946,2018-01-10,Vente,112000.0,RUE DU RUISSEAU ST JULIEN,31470.0,31499,Saint-Lys,314990000E2447,1.176679,43.509557
2018-1197121,2018-12-14,Vente,27000.0,ETRUYERE,85120.0,85289,La Tardière,852890000C0689,-0.704954,46.657086
2018-518627,2018-05-25,Vente,163000.0,RUE DU CHANOINE DALMAS,37000.0,37261,Tours,37261000EO1119,0.673357,47.392588
2018-593309,2018-02-27,Vente,230000.0,LA TUILERIE,42170.0,42279,Saint-Just-Saint-Rambert,42279250AV0796,4.271168,45.512117
2018-322862,2018-06-28,Vente,55000.0,LE RISTOUAR,29300.0,29233,Quimperlé,29233000ZH0074,-3.577701,47.849425
2018-759790,2018-10-15,Vente,25000.0,MEZ KERLO,56590.0,56069,Groix,56069000ZN0115,-3.482223,47.640556
2018-813618,2018-03-20,Vente,85000.0,RUE DU GENERAL LECLERC,59141.0,59322,Iwuy,593220000A3515,3.326762,50.224673
2018-1379101,2018-04-13,Vente,45000.0,AV DU GAL CHARLES DE GAULLE,97300.0,97302,Cayenne,97302000AE0244,-52.32969,4.939546
2018-697896,2018-09-19,Vente,154000.0,ALL DU COUVENT,50300.0,50025,Avranches,50025516AB0261,-1.353431,48.674606
2018-926254,2018-10-05,Vente en l'état futur d'achèvement,450000.0,CHE DE CHOULANS,69005.0,69385,Lyon 5e Arrondissement,69385000AR0249,4.815843,45.754389
2018-884304,2018-04-12,Vente,49000.0,RUE PAUL ELUARD,64000.0,64445,Pau,64445000DS0332,-0.363704,43.323835
2018-615294,2018-09-28,Vente en l'état futur d'achèvement,178000.0,RUE MENOU,44000.0,44109,Nantes,44109000HS0486,,
2018-728236,2018-11-26,Vente,180000.0,RUE ARISTIDE BRIAND,53100.0,53147,Mayenne,53147000AX0021,-0.618775,48.303273
2018-67413,2018-08-21,Vente,23000.0,AV MICHEL JOURDAN,6150.0,6029,Cannes,06029000AM0554,6.96961,43.555871
2018-737816,2018-04-25,Vente,264950.0,RUE DE LORRAINE,54400.0,54138,Cosnes-et-Romain,54138000AP0017,5.748513,49.528507
2018-544378,2018-09-10,Vente,139098.0,AV DU VERCORS,38600.0,38169,Fontaine,38169000AK0301,5.694318,45.192799
2018-1108479,2018-01-17,Vente,38000.0,BOIS DE CROIZETTE,79000.0,79308,Sciecq,79308000AA0014,-0.48546,46.377349
2018-84169,2018-06-25,Vente,530000.0,DESSOUS LE CHATEAU,7320.0,7080,Devesset,07080000AD0256,4.391154,45.067793
2018-1274551,2018-09-21,Vente,525000.0,RUE TRUMEAU,92500.0,92063,Rueil-Malmaison,92063000AR0828,2.182622,48.876918
2018-818911,2018-07-30,Vente,440000.0,RUE P VAILLANT COUTURIER,59770.0,59383,Marly,593830000B5185,3.522583,50.338614
2018-566016,2018-03-23,Vente,283200.0,DE BIZE,40430.0,40060,Callen,400600000C0176,-0.450472,44.310888
2018-431678,2018-07-31,Vente,130000.0,CHE DES LAVANDIERES,33840.0,33095,Captieux,33095000AB0406,-0.261978,44.293412
2018-862221,2018-01-12,Vente,125000.0,LE VILLAGE,62960.0,62485,Laires,62485000AB0114,2.257016,50.539981
2018-509002,2018-01-29,Vente,44810.94,LA CARRIERE,35220.0,35068,Châteaubourg,35068000AE0022,-1.397423,48.105439
2018-1315774,2018-05-18,Vente,390000.0,ALL RICHELIEU,93270.0,93071,Sevran,93071000BR0095,2.522653,48.926837
2018-342946,2018-11-05,Vente en l'état futur d'achèvement,164000.0,BODICCIONE,20090.0,2A004,Ajaccio,2A004000BD0584,8.753858,41.941528
2018-489311,2018-08-24,Vente,210000.0,RUE DES LOGES,35135.0,35055,Chantepie,35055000AP0554,-1.623639,48.08898
2018-1217814,2018-12-14,Vente,148300.0,RUE DE LANGUEDOC,86530.0,86174,Naintré,86174000BW0101,0.531218,46.771299
2018-477965,2018-12-28,Vente,123155.0,RUE MICHELINE OSTERMEYER,34500.0,34032,Béziers,34032000CX0473,3.225592,43.361382
2018-962992,2018-01-19,Vente,145000.0,RUE FERDINAND BUISSON,70000.0,70378,Navenne,70378000AC0031,6.154517,47.611364
2018-4594,2018-02-08,Vente,145000.0,RUE ANATOLE FRANCE,1100.0,1283,Oyonnax,01283000AH0784,5.652974,46.254752
2018-699563,2018-03-12,Vente,108000.0,RUE DES GAINS,50460.0,50129,Cherbourg-en-Cotentin,50129416AE0108,-1.695988,49.659019
2018-19148,2018-11-12,Vente en l'état futur d'achèvement,181000.0,AV DE LA REPUBLIQUE,2100.0,2691,Saint-Quentin,02691000BO0117,3.306726,49.859701
2018-404142,2018-11-15,Vente,192000.0,QUARTIER DU PARC,32100.0,32080,Castelnau-sur-l'Auvignon,320800000A0704,0.453944,43.983931
2018-276144,2018-07-19,Vente en l'état futur d'achèvement,158000.0,RUE DE LA FAYE,25770.0,25542,Serre-les-Sapins,25542000AC0150,5.934094,47.246961
2018-1153127,2018-03-23,Vente,30000.0,LE BAS GRAND TEMPLE,83149.0,83021,Bras,830210000L0052,5.927869,43.453347
2018-1161519,2018-05-29,Vente,122000.0,ROC DES PLAYES,83140.0,83129,Six-Fours-les-Plages,83129000AM0812,5.827824,43.099046
2018-1039288,2018-11-07,Vente,117000.0,RUE GASTON BOULET,76380.0,76157,Canteleu,76157000AS0286,1.0486,49.454746
2018-452795,2018-06-18,Vente en l'état futur d'achèvement,210000.0,LE GINESTIER,34470.0,34198,Pérols,34198000AT0569,3.959856,43.555963
2018-1196054,2018-09-04,Vente,40000.0,PL DE LA LIBERTE,85110.0,85115,La Jaudonnière,851150000B1420,-0.963368,46.64345
2018-147183,2018-06-19,Vente en l'état futur d'achèvement,425000.0,BD FERDINAND DE LESSEPS,13090.0,13001,Aix-en-Provence,13001000CO0109,5.435448,43.524609
2018-28250,2018-02-21,Vente,73500.0,RUE DE BELLEVUE,3100.0,3185,Montluçon,03185000BR0128,2.584895,46.324925
2018-758271,2018-06-18,Vente,116000.0,SAINT MATHURIN,56270.0,56162,Ploemeur,56162000CN0162,-3.414212,47.740331
2018-748572,2018-03-28,Vente,112000.0,RES LES CAPUCINS,56000.0,56260,Vannes,56260000BY0242,-2.755702,47.651991
2018-447348,2018-10-12,Vente,120826.0,LA MALETONNE,33340.0,33055,Blaignan-Prignac,330550000C0368,-0.886804,45.324179
2018-1343918,2018-11-15,Vente,440000.0,RUE DE LA STATION,94440.0,94075,Villecresnes,94075000AC0314,2.515481,48.732616
2018-331237,2018-05-24,Vente,234500.0,RUE DES CHARMES,29800.0,29056,La Forest-Landerneau,29056000AD0247,-4.326851,48.421882
2018-252224,2018-04-03,Adjudication,35000.0,LA VILLE SALMON,22130.0,22014,Bourseul,22014000ZL0063,-2.279914,48.484622
2018-619993,2018-02-27,Vente,25000.0,RUE DU POCALAIS,44400.0,44143,Rezé,44143000CP0011,-1.563193,47.186521
2018-1330965,2018-10-03,Vente,81000.0,AV DU CHEMIN DE PRESLES,94410.0,94069,Saint-Maurice,940690000M0178,2.46077,48.81688
2018-894641,2018-08-08,Vente,251720.0,RES HAUTS DE BIARRITZ,64200.0,64122,Biarritz,64122000BO0265,-1.563141,43.469059
2018-430188,2018-06-13,Vente,240000.0,LE BUC,33880.0,33381,Saint-Caprais-de-Bordeaux,33381000AO0104,-0.431651,44.745736
2018-1276834,2018-01-29,Vente,384600.0,AV DU GAL DE GAULLE,92250.0,92035,La Garenne-Colombes,920350000S0088,2.254749,48.911558
2018-414523,2018-01-29,Vente,108000.0,AV ROGER COHE,33600.0,33318,Pessac,33318000BE0295,-0.633152,44.812293
2018-613136,2018-07-09,Vente,200000.0,RUE DU PORT GUICHARD,44000.0,44109,Nantes,44109000BY0433,-1.543673,47.231941
2018-938740,2018-05-24,Vente,165000.0,ROICHIN,69150.0,69275,Décines-Charpieu,69275000CO0214,4.965547,45.761483
2018-1292730,2018-12-28,Vente en l'état futur d'achèvement,204000.0,RUE MAZKERET BATIA,92360.0,92048,Meudon,92048000AR0279,2.226837,48.782762
2018-434440,2018-08-08,Vente,210000.0,AV D AQUITAINE,33380.0,33555,Marcheprime,33555000AD0155,-0.849057,44.696221
2018-566596,2018-06-01,Vente,497500.0,ARROUSIN,40090.0,40051,Bougue,400510000B0040,-0.400694,43.896126
2018-920076,2018-11-27,Vente,35000.0,LAS FOURQUES D EN BARRERE,66300.0,66015,Banyuls-dels-Aspres,660150000A1040,2.871931,42.574579
2018-517296,2018-03-19,Vente,154200.0,RUE JACQUES DE LAVARDIN,37380.0,37166,Neuillé-le-Lierre,371660000D0992,0.906845,47.510885
2018-525042,2018-07-19,Vente,96125.0,RUE DE LA POSTE,37320.0,37211,Saint-Branchs,372110000K1080,0.771227,47.227921
2018-984516,2018-06-12,Vente,125000.0,RUE DE LA COMETE,72390.0,72118,Dollon,72118000AB0151,0.582052,48.042736
2018-1316957,2018-08-22,Vente,155000.0,AV GUY MOLLET,93270.0,93071,Sevran,93071000AY0122,2.54981,48.943162
2018-594802,2018-07-06,Vente,146000.0,RUE DES CIGALES,42170.0,42279,Saint-Just-Saint-Rambert,42279250AD0207,4.259141,45.514801
2018-1059629,2018-11-12,Vente,145000.0,ALL CHANTAL RABUTIN,77380.0,77122,Combs-la-Ville,771220000A2755,2.567642,48.665632
2018-824245,2018-10-29,Vente,146400.0,RUE DOMANE,60850.0,60577,Saint-Germer-de-Fly,605770000B0615,1.784325,49.442272
2018-154086,2018-06-04,Vente en l'état futur d'achèvement,366400.0,PLAINE DE LA REYNARDE,13820.0,13033,Ensuès-la-Redonne,130330000B0847,5.196539,43.356551
2018-906483,2018-02-05,Vente,53500.0,LES CLOSES,66740.0,66225,Villelongue-dels-Monts,66225000AD0195,2.907639,42.529913
2018-971915,2018-11-26,Vente,52000.0,LA VARENNE,71380.0,71445,Saint-Marcel,714450000G0795,4.897124,46.782981
2018-266081,2018-10-18,Vente,312500.0,RUE DU 8 MAI 1945,24750.0,24557,Trélissac,24557000AL0012,0.781941,45.206706
2018-1165560,2018-11-08,Vente,134000.0,AV JOSEPH RAYNAUD,83140.0,83129,Six-Fours-les-Plages,83129000AH0919,5.847785,43.090212
2018-342276,2018-09-12,Vente,154000.0,RES DU STILETTO,20167.0,2A004,Ajaccio,2A0040000A0785,8.772405,41.946831
2018-1134719,2018-06-12,Vente,210000.0,LA CAUSSADE,81470.0,81179,Montgey,81179000ZM0103,1.946264,43.517058
2018-1165658,2018-11-23,Vente en l'état futur d'achèvement,172000.0,RUE ALFRED DE MUSSET,83100.0,83137,Toulon,83137000CE0284,5.949311,43.123049
2018-172109,2018-02-27,Vente,83100.0,RUE SAINT LOUP,14400.0,14047,Bayeux,14047000AI0197,-0.707062,49.273812
2018-319683,2018-09-12,Vente,453600.0,RUE JEAN CAM,29700.0,29216,Pluguffan,29216000AK0116,-4.140395,47.96987
2018-1395759,2018-06-11,Vente,157000.0,RUE LA GRANGE AUX BELLES,75010.0,75110,Paris 10e Arrondissement,75110000BP0042,2.366274,48.875345
2018-200405,2018-12-21,Vente,89900.0,RUE DE L ALERTE,17220.0,17194,La Jarrie,17194000AN0575,-1.007738,46.125942
2018-1090696,2018-07-19,Vente,375000.0,AV DU MAL FOCH,78400.0,78146,Chatou,78146000AI0004,2.154815,48.890728
2018-1204457,2018-12-13,Vente,145700.0,ZA DU VIVIER,85430.0,85161,Nieul-le-Dolent,85161000ZR0274,-1.519069,46.56857
2018-309713,2018-08-17,Vente,251000.0,ALL DES ECUREUILS,28300.0,28209,Lèves,28209000AO0043,1.467493,48.470965
2018-797862,2018-08-21,Vente en l'état futur d'achèvement,196000.0,RUE CHARLES WATTINE,59200.0,59599,Tourcoing,59599000HP0075,3.157294,50.715128
2018-819722,2018-09-29,Vente,119000.0,RUE DANTON,59215.0,59002,Abscon,59002000AL0387,3.301852,50.330642
2018-889907,2018-06-25,Vente,250000.0,CHE DE LA SERRE,64400.0,64422,Oloron-Sainte-Marie,644220000M0138,-0.643177,43.207326
2018-498840,2018-12-28,Vente en l'état futur d'achèvement,145000.0,LA BROSSE,35340.0,35152,Liffré,35152000BL0371,-1.518081,48.210273
2018-975109,2018-05-31,Vente,69550.0,RUE DES PETITES ROCHES,71190.0,71192,Étang-sur-Arroux,71192000AE0160,4.196193,46.865248
2018-332228,2018-08-31,Vente,166000.0,RUE ROGER SALENGRO,29800.0,29103,Landerneau,29103000AD0200,-4.24916,48.457092
2018-1022142,2018-09-27,Vente,46362.75,LA PLANCHETTE,74310.0,74266,Servoz,742660000A2893,6.764628,45.933243
2018-940209,2018-07-09,Vente en l'état futur d'achèvement,237160.0,RUE DE LA REPUBLIQUE,69150.0,69275,Décines-Charpieu,69275000AS0596,4.962652,45.764442
2018-347729,2018-01-05,Vente,94000.0,BD DU DR JEAN BASTIDE,30240.0,30133,Le Grau-du-Roi,30133000BB0003,4.123813,43.549107
2018-998918,2018-12-14,Vente,241815.0,RES LA LICORNE IV,73210.0,73150,La Plagne Tarentaise,731500000M2257,6.70774,45.509512
2018-1359298,2018-06-22,Vente,141000.0,RUE WOLFGANG AMADEUS MOZART,95440.0,95205,Écouen,95205000AC0616,2.378385,49.025359
2018-580725,2018-11-09,Vente,138000.0,RUE DE MONTPROFOND,41260.0,41047,La Chaussée-Saint-Victor,41047000AD0086,1.35688,47.608501
2018-1026346,2018-07-04,Vente,125000.0,AV DE L ERMITAGE,74200.0,74281,Thonon-les-Bains,74281000AO0539,6.48901,46.366728
2018-646416,2018-12-13,Vente,200000.0,RUE DU PORT,44390.0,44122,Petit-Mars,44122000AP0063,-1.469912,47.404488
2018-1327657,2018-03-26,Vente,330000.0,AV DU MESNIL,94210.0,94068,Saint-Maur-des-Fossés,94068000BM0081,2.51486,48.795111
2018-561149,2018-09-03,Vente,232500.0,RUE DE LA TUILERIE,39140.0,39160,Commenailles,39160000ZP0083,5.45342,46.801782
2018-66831,2018-07-25,Vente en l'état futur d'achèvement,23000.0,AV JANVIER PASSERO,6210.0,6079,Mandelieu-la-Napoule,06079000AM0010,6.938924,43.548294
2018-258931,2018-02-19,Vente,75000.0,GR GRANDE RUE,23270.0,23057,Châtelus-Malvaleix,23057000AH0269,2.022436,46.304986
2018-1002483,2018-07-17,Vente,239540.0,BD DOMENGET,73100.0,73008,Aix-les-Bains,73008000BP0047,5.911349,45.697486
2018-556057,2018-03-22,Vente,265000.0,LES COLOMBIERES,38160.0,38095,Chatte,380950000C1562,5.291509,45.143574
2018-261246,2018-11-28,Vente,70000.0,LA LANDE,23600.0,23240,Saint-Silvain-Bas-le-Roc,232400000B0394,2.205533,46.327247
2018-74084,2018-06-21,Vente,169000.0,AV COMBATTANTS AFRIQUE NORD,6700.0,6123,Saint-Laurent-du-Var,06123000AY0079,7.189467,43.677348
2018-674064,2018-07-26,Vente,156679.0,LE MALPAS,48240.0,48152,Ventalon en Cévennes,481520000B0908,3.85492,44.292784
2018-1080109,2018-12-27,Vente en l'état futur d'achèvement,204000.0,AV DE LA RESISTANCE,77500.0,77108,Chelles,77108000BH0125,2.586245,48.877356
2018-743992,2018-08-02,Adjudication,77769.98,LE VILLAGE,55150.0,55316,Mangiennes,55316000AC0226,5.527266,49.350393
